,Lat,Long,Code,Campground,Type,City,State
91,60.416,-149.381,TRAI,Trail River,NF,Moose Pass,AK
67,62.868,-145.535,PAXS,Paxson Lake,BLM,Gakona,AK
66,65.37,-147.088,OPHI,Ophir Creek - Steese Hwy,BLM,,AK
65,56.58,-132.741,OHME,Ohmer Creek,NF,Petersburg,AK
64,60.051,-151.668,NINI,Ninilchik State Rec Area,SRA,Ninilchik,AK
63,61.708,-150.027,NANC,Nancy Lake State Rec Area,SRA,Sutton,AK
62,65.356,-146.621,MOUP,Mount Prindle - Steese Hwy,BLM,,AK
61,59.453,-136.026,MOSQ,Mosquito Lake State Rec Area,SRA,Haines,AK
60,60.5,-150.863,MORG,Morgans Landing State Rec Area,SRA,Sterling,AK
59,63.374,-143.543,MOON,Moon Lake State Rec Area,SRA,Tanacross,AK
58,58.411,-134.587,MEND,Mendenhall Lake,NF,Juneau,AK
57,61.798,-147.795,MATA,Matanuska Glacier State Rec Area,SRA,Sutton,AK
55,60.473,-150.461,LOWS,Lower Skilak Lake, ,Cooper Landing,AK
68,62.729,-143.868,PORC,Porcupine Creek State Rec Area,SRA,Slana,AK
54,60.462,-150.322,LOWO,Lower Ohmer Lake, ,Cooper Landing,AK
52,55.445,-131.684,LAST,Last Chance,NF,Ketchikan,AK
51,62.28,-146.551,LAKE,Lake Louise State Rec Area,SRA,Glennallen,AK
50,61.776,-148.495,KING,King Mountain State Rec Area,SRA,Chickaloon,AK
49,60.293,-151.269,JOHN,Johnson Lake State Rec Area,SRA,Kasilof,AK
48,60.536,-150.755,IZAA,Izaak Walton State Rec Area,SRA,Sterling,AK
47,60.466,-150.204,HIDD,Hidden Lake  - Kenai Wildlife Refuge,NWR,Cooper Landing,AK
46,55.467,-132.862,HARR,Harris River,NF,Klawock,AK
45,64.438,-146.882,HARD,Harding Lake State Rec Area,SRA,Salcha,AK
44,60.725,-149.292,GRAN,Granite Creek,NF,Moose Pass,AK
43,68.5,-149.46,GALB,Galbraith Lake - Dalton Hwy,BLM,,AK
42,57.831,-152.36,FORT,Fort Abercrombie State Park,SP,Kodiak,AK
41,65.918,-149.816,FIVE,Five Mile - Dalton Hwy,BLM,,AK
53,61.987,-146.951,LITT,Little Nelchina State Rec Area,SRA,Glennallen,AK
69,60.931,-149.664,PORT,Porcupine Trailhead,NF,Hope,AK
70,60.341,-149.369,PRIM,Primrose Trailhead,NF,Seward,AK
71,60.407,-149.362,PTAR,Ptarmigan Creek Trailhead,NF,Seward,AK
99,61.753,-150.058,WILL,Willow Creek State Rec Area,SRA,Willow,AK
98,60.786,-148.88,WILW,Williwaw,NF,Girdwood,AK
97,65.087,-147.73,WHIT,Whitefish - Lower Chatanika State Rec Area,SRA,Fairbanks,AK
96,63.886,-142.229,WESF,West Fork - Taylor Hwy,BLM,,AK
95,64.077,-141.633,WALK,Walker Fork - Taylor Hwy,BLM,Chicken,AK
94,61.138,-146.214,VALD,Valdez Glacier,CP,Valdez,AK
93,60.438,-150.319,UPPS,Upper Skilak,NWR,Cooper Landing,AK
92,65.192,-147.257,UPPC,Upper Chatanika River State Rec Area,SRA,Fairbanks,AK
90,63.325,-142.839,TOKR,Tok River State Rec Area,SRA,Tok,AK
89,60.531,-149.557,TERN,Tern Lake, ,Moose Pass,AK
88,60.636,-149.497,TEND,Tenderfoot Creek,NF,Moose Pass,AK
87,63.671,-149.576,TEKL,Teklanika  River - Denali National Park,NP,Healy,AK
86,63.052,-146.012,TANG,Tangle Lakes,BLM,,AK
85,57.133,-135.369,STAR,Starrigavan,NF,Sitka,AK
84,59.843,-151.812,STAR,Stariski State Rec Area,SRA,Anchor Point,AK
83,61.665,-145.174,SQUI,Squirrel Creek State Rec Area,SRA,Copper Center,AK
82,62.528,-145.52,SOUR,Sourdough Creek,BLM,Gakona,AK
81,55.409,-131.698,SIGN,Signal Creek,NF,Ketchikan,AK
80,55.511,-131.726,SETT,Settlers Cove State Rec Area,SRA,Ketchikan,AK
79,57.062,-135.207,SAWM,Sawmill Creek,NF,Sitka,AK
78,63.74,-149.294,SAVA,Savage River - Denali National Park,NP,,AK
77,64.469,-146.937,SALC,Salcha River State Rec Area,SRA,Salcha,AK
76,60.484,-149.974,RUSS,Russian River Complex,NF,Cooper Landing,AK
75,61.558,-149.822,ROCK,Rocky Lake State Rec Area,SRA,Wasilla,AK
74,63.73,-148.894,RILE,Riley Creek - Denali National Park,NP,,AK
73,64.198,-145.827,QUAR,Quartz Lake State Rec Area,SRA,Delta Junction,AK
72,60.479,-149.728,QUAC,Quartz Creek,NF,Cooper Landing,AK
40,61.61,-149.274,FING,Finger Lake State Rec Area,SRA,Wasilla,AK
39,61.409,-149.148,EKLU,Eklunta - Chugach State Park,SP,Chugiak,AK
56,67.318,-150.163,MARI,Marion Creek - Dalton Hwy,BLM,,AK
37,63.165,-143.195,EAGT,Eagle Trail State Rec Area,SRA,Tok,AK
16,64.903,-146.373,CHEN,Chena River State Rec Area,SRA,Fairbanks,AK
15,61.227,-149.733,CENT,Centennial Camper Park,CP,Anchorage,AK
14,62.747,-150.115,BYER,Byers Lake - Denali State Park,SP,Trapper Creek,AK
13,57.763,-152.478,BUSK,Buskin River State Rec Area,SRA,Kodiak,AK
12,63.294,-148.055,BRUS,Brushkana Creek,BLM,Cantwell,AK
11,61.121,-145.686,BLUE,Blueberry Lake State Rec Area,SRA,Valdez,AK
10,56.615,-132.823,BLIN,Blind Slough,NF,Petersburg,AK
9,60.794,-148.909,BLAC,Black Bear,NF,Girdwood,AK
8,60.973,-149.464,BIRD,Bird Creek - Chugach State Park,SP,Anchorage,AK
7,64.319,-146.641,BIRC,Birch Lake State Rec Area,SRA,Salcha,AK
6,60.516,-150.702,BING,Bings Landing State Rec Area,SRA,Sterling,AK
4,60.751,-149.256,BERT,Bertha Creek,NF,Hope,AK
3,58.381,-134.737,AUKV,Auk Village,NF,Juneau,AK
2,66.566,-150.81,ARCT,Arctic Circle - Dalton Hwy,BLM,,AK
1,59.768,-151.865,ANCH,Anchor River State Rec Area,SRA,Anchor Point,AK
0,61.086,-146.343,ALLI,Allison Point,CP,Valdez,AK
38,55.707,-132.852,EAGN,Eagles Nest,NF,,AK
17,64.84,-147.81,CHER,Chena River State Rec Site,SRA,Fairbanks,AK
18,60.661,-144.763,CHID,Childs Glacier Recreation Area,NP,,AK
5,61.543,-149.849,BIGL,Big Lake North State Rec Area,SRA,Wasilla,AK
20,59.334,-135.559,CHIL,Chilkoot Lake State Rec Area,SRA,Haines,AK
36,61.307,-149.57,EAGR,Eagle River - Chugach State Park,SP,Eagle River,AK
19,59.148,-135.363,CHIK,Chilkat State Park,SP,Haines,AK
35,64.774,-141.238,EAGL,Eagle - Taylor Hwy,BLM,Eagle,AK
34,59.483,-135.359,DYEA,Dyea - Klondike National Historical Park,NP,Skagway,AK
32,63.677,-145.883,DONN,Donnelly Creek State Rec Area,SRA,Delta Junction,AK
31,60.702,-150.799,DOLL,Dolly Varden Lake, ,Kenai,AK
30,60.804,-151.016,DISC,Discovery State Rec Area,SRA,Kenai,AK
29,62.737,-150.17,DENA,Denali Viewpoint - Denali State Park,SP,Talkeetna,AK
33,62.146,-145.478,DRYC,Dry Creek State Rec Area,SRA,Glennallen,AK
27,60.027,-151.688,DEEP,Deep Creek State Rec Area,SRA,Ninilchik,AK
26,65.274,-146.694,CRIP,Cripple Creek - Steese Hwy,BLM,Fairbanks,AK
25,60.499,-149.688,CRES,Crescent Creek,NF,Cooper Landing,AK
24,60.484,-149.888,COOP,Cooper Creek Trailhead,NF,Cooper Landing,AK
23,60.85,-149.533,COEU,Coeur Dalene,NF,Hope,AK
22,64.055,-145.442,CLEA,Clearwater State Rec Area,SRA,Delta Junction,AK
28,64.06,-145.733,DELT,Delta State Rec Area,SRA,Delta Junction,AK
21,60.233,-151.387,CLAM,Clam Gulch State Rec Area,SRA,Clam Gulch,AK
74,34.338,-87.346,MCDO,Mcdougle Hunter Camp,NF,Russellville,AL
84,32.598,-86.991,PAUL,Paul M Grist State Park,SP,Selma,AL
75,34.784,-87.681,MCFA,McFarland Park,CP,Florence,AL
76,30.67,-87.931,MEAH,Meaher State Park,SP,Spanish Fort,AL
77,30.907,-87.978,MOBI,Mobile County Marina,CP,Creola,AL
80,33.353,-86.718,OAKM,Oak Mountain State Park,SP,Pelham,AL
79,34.042,-86.022,NOCC,Noccalula Falls Campground,CP,Gadsden,AL
81,31.574,-88.032,OLD1,Old Lock 1 - Coffeeville Lake,COE,Coffeeville,AL
82,31.276,-85.117,OMUS,Omussee Creek County Rec Area,CP,,AL
73,32.371,-86.37,MAXW,Maxwell/Gunter AFB Military,MIL,,AL
83,31.09,-86.55,OPEN,Open Pond Recreation Area,NF,Lockhart,AL
78,34.744,-86.512,MONT,Monte Sano State Park,SP,Huntsville,AL
72,34.382,-86.284,MARS,Marshall County Park,CP,Guntersville,AL
64,32.778,-85.824,LAKE,Lake Martin Military,MIL,Dadeville,AL
70,32.893,-87.783,LOC8,Lock 8,COE,Akron,AL
69,32.785,-87.837,LOC7,Lock 7,COE,Eutaw,AL
68,32.587,-87.744,LOC5,Lock 5,COE,Cedarville,AL
67,31.856,-88.16,LENO,Lenoir Landing - Coffeeville Lake,COE,Toxey,AL
66,31.07,-88.317,LAKV,Lakeview RV City Park,CP,Citronelle; Fr,AL
65,31.988,-85.114,LAKP,LakePoint State Park,SP,Eufaula,AL
63,33.296,-87.677,LAKL,Lake Lurleen State Park,SP,Coker,AL
62,34.401,-86.203,LAKG,Lake Guntersville State Park,SP,Guntersville,AL
61,33.461,-85.874,LAKC,Lake Chinnabee,NF,Oxford,AL
60,32.399,-86.785,JONE,Jones Bluff,COE,,AL
85,32.884,-87.44,PYLE,Payne Lake East Side,NF,Duncanville,AL
59,34.793,-87.38,JOEW,Joe Wheeler State Park,SP,Rogersville,AL
71,34.7,-87.158,MALL,Mallard Creek,TVA,Decatur,AL
86,32.881,-87.446,PYLS,Payne Lake Spillway,NF,Duncanville,AL
104,34.081,-86.948,SMIT,Smith Lake County Park,CP,Cullman,AL
88,33.235,-88.304,PICK,Pickensville,COE,Carrollton,AL
58,32.81,-87.807,JENN,Jennings Ferry,COE,Akron,AL
95,32.057,-87.249,ROLA,Roland Cooper State Park,SP,Camden,AL
96,32.555,-87.844,RUNA,Runaway Branch,COE,Demopolis,AL
97,31.746,-88.144,SERV,Service,COE,,AL
98,34.895,-86.442,SHAR,Sharon Johnston Park,CP,New Market,AL
99,31.903,-86.678,SHER,Sherling Lake City Park,CP,Greenville.,AL
100,31.665,-87.573,SILV,Silver Creek,COE,Gosport,AL
101,32.327,-87.01,SIXM,Six Mile Creek,COE,Selma,AL
102,34.519,-87.918,SLIC,Slick Rock - Bear Creek Auth,AUTH,Russellville,AL
103,34.622,-87.797,SMAL,Small Point - Cane Creek Canyon,PR,Tuscumbia,AL
105,32.592,-85.302,SPRI,Spring Villa Campground,CP,Opelika,AL
106,31.561,-88.04,STEP,St. Stephens Historical Park,CP,St. Stephens,AL
87,32.889,-87.444,PYLW,Payne Lake West Side,NF,Duncanville,AL
107,34.853,-85.832,STEV,Stevenson Municipal Park - Guntersville Reservoir,CP,Stevenson,AL
108,32.872,-88.185,SUMT,Sumter Rec Area,COE,Livingston,AL
109,33.251,-87.068,TANN,Tannehill Ironworks Historical State Park,SP,McCalla,AL
110,33.444,-85.842,TURN,Turnipseed Hunter Camp,NF,Oxford,AL
111,34.809,-87.629,VETE,Veterans Memorial Park, ,Florence,AL
112,31.777,-85.147,WHIT,White Oak Creek,COE,Eufaula,AL
113,34.417,-87.907,WILL,Williams Hollow,UTIL,Spruce Pine,AL
114,34.788,-87.63,WILS,Wilson Dam - Lower Rockpile,TVA,Muscle Shoals-,AL
115,32.854,-85.925,WIND,Wind Creek State Park,SP,Alexander City,AL
92,32.338,-86.77,PRAI,Prairie Creek,COE,Lowndesboro,AL
91,34.574,-86.938,POIN,Point Mallard City Campground,CP,Decatur,AL
90,34.392,-87.987,PINP,Piney Point,UTIL,Hodges,AL
89,33.725,-85.604,PINE,Pine Glen,NF,Heflin,AL
94,33.876,-86.865,RICK,Rickwood Caverns State Park,SP,Warrior,AL
57,34.639,-86.017,JACK,Jackson County Park,CP,Scottsboro,AL
93,34.693,-86.64,REDS,Redstone Arsenal RV Military,MIL,Huntsville,AL
55,31.192,-85.373,HOUC,Houston County Center,CP,Dothan,AL
24,31.064,-88.319,CITR,Citronelle Lakeview RV Park,CP,Citronelle,AL
23,32.141,-87.274,CHIA,Chilatchee Creek,NF,Alberta,AL
22,32.363,-87.78,CHIK,Chickasaw State Park,SP,Gallion,AL
56,31.622,-87.55,ISAA,Isaac Creek,COE,Camden,AL
0,32.977,-85.214,AMIT,Amity,COE,Lanett,AL
1,33.621,-85.963,ANNI,Anniston Army Depot RV Military,MIL,Anniston,AL
2,34.427,-87.924,BEA3,Bear Creek Lakes,AUTH,Russellville,AL
3,34.448,-87.966,BEA2,Bear Creek Lakes,AUTH,Hodges,AL
4,31.806,-87.422,BELL,Bells Landing,COE,Camden,AL
5,32.552,-87.877,BELM,Belmont Park,COE,Belmont,AL
6,33.72,-85.56,BIGO,Big Oak Gap Hunter Camp,NF,Heflin,AL
7,31.738,-88.196,BLAD,Bladon Springs State Park,SP,Bladon Springs,AL
8,30.714,-87.902,BLAK,Blakeley State Park,SP,Spanish Fort,AL
9,33.437,-87.38,BLUE,Blue Creek,COE,Windham Spring,AL
10,31.661,-85.507,BLUE,Blue Springs State Park,SP,Clio,AL
11,32.186,-85.014,BLUF,Bluff Creek,COE,Pittsview,AL
12,33.04,-86.948,BRIA,Brierfield Ironworks Historical Park,SP,Montevallo,AL
13,34.298,-87.272,BRUS,Brushy Lake,NF,Moulton,AL
14,34.472,-86.051,BUCK,Bucks Pocket State Park,SP,Grove Oak,AL
15,33.45,-87.349,BURC,Burchfield Branch Park,COE,Adger,AL
16,32.957,-85.218,BURN,Burnt Village,CP,Lanett,AL
17,34.572,-86.23,CATH,Cathedral Caverns State Park,SP,Woodville,AL
18,31.003,-85.031,CHAP,Chattahoochee Park,CP,Gordon,AL
19,33.477,-85.808,CHEA,Cheaha State Park,SP,Delta,AL
20,32.554,-85.48,CHEW,Chewacla State Park,SP,Auburn,AL
25,34.02,-87.26,CLEA,Clear Creek,NF,Jasper,AL
26,33.084,-88.27,COCH,Cochrane,COE,Aliceville,AL
21,30.779,-88.108,CHIB,Chickasabogue Park, ,Mobile,AL
28,33.785,-85.558,COLE,Coleman Lake Rec Area,NF,Jacksonville,AL
54,34.119,-87.297,HOUS,Houston,NF,Houston,AL
53,34.382,-87.966,HORS,Horseshoe Bend - Bear Creek Lakes,AUTH,Hodges,AL
52,33.338,-86.853,HOOV,Hoover RV Park,CP,Hoover,AL
51,33.254,-87.43,HOLT,Holt Lake,COE,Cottondale,AL
50,31.644,-85.113,HARD,Hardridge Creek,COE,Ft Gaines GA,AL
49,31.725,-87.469,HAIN,Haines Island,COE,Camden,AL
48,32.36,-86.482,GUNT,Gunter Hill,COE,Montgomery,AL
47,30.268,-87.65,GULF,Gulf State Park,SP,Gulf Shores,AL
46,34.586,-86.083,GOOS,Goose Pond Colony,CP,Scottsboro,AL
27,34.854,-88.085,COLB,Colbert County Rose Trail Park,CP,Cherokee,AL
44,32.515,-87.867,FOSC,Foscue,COE,Demopolis,AL
43,32.508,-86.252,FORL,Fort Toulouse/Jackson Park,NP,Montgomery,AL
42,32.634,-87.879,FORK,Forkland/McConnico Creek,COE,Demopolis,AL
41,30.998,-86.318,FLOR,Florala State Park,SP,Florala,AL
45,31.346,-86.281,FRAN,Frank Jackson State Park,SP,Opp,AL
39,32.164,-87.115,ELMB,Elm Bluff - William Dannelly Reservoir,COE,Camden,AL
29,34.1,-87.32,CORI,Corinth,NF,Double Springs,AL
40,31.409,-85.716,ENGI,Engineer Beach RV Military - Fort Rucker,MIL,Ozark,AL
31,30.25,-88.079,DAUP,Dauphin Island City Park,CP,Dauphin Island,AL
32,34.501,-85.618,DESO,De Soto State Park,SP,Fort Payne,AL
33,33.257,-87.435,DEER,Deerlick,COE,Tuscaloosa,AL
30,31.615,-87.556,DAMS,Damsite West Bank,COE,Gosport,AL
34,34.577,-85.807,DEKA,Dekalb County Public Lake,CP,Sylvania,AL
35,34.575,-86.558,DITT,Ditto Landing City Campground,CP,Huntsville,AL
36,32.116,-87.389,EAST,East Bank/Millers Ferry,COE,Camden,AL
37,34.588,-86.684,EAST,Easter Posey MWR Military - Redstone Arsenal,MIL,Valhermoso Springs,AL
38,34.448,-87.966,ELLI,Elliot Branch - Bear Creek  Auth,AUTH,Hodges,AL
355,36.295,-92.175,WOOD,Woods Pt, ,Mountain Home,AR
124,36.019,-92.249,BARK,Barkshed,NF,Mountain View,AR
123,34.391,-94.013,BARD,Bard Springs,NF,Athens,AR
122,34.637,-93.383,AVAN,Avant - Lake Ouachita,COE,Jessieville,AR
121,35.468,-93.822,AUXA,Aux Arc,COE,Ozark,AR
118,34.259,-93.245,ALPI,Alpine Ridge - De Gray Lake,COE,Arkadelphia,AR
119,34.274,-93.192,ARLI,Arlie Moore - De Gray Lake,COE,Arkadelphia,AR
125,35.524,-92.944,BAYO,Bayou Bluff,NF,Jerusalem,AR
117,33.62,-93.861,ALLE,Allens Ferry at Little River,CP,Fulton,AR
116,34.373,-93.879,ALBE,Albert Pike,NF,Langley,AR
120,34.245,-93.801,ARRO,Arrowhead Point, ,Kirby,AR
126,34.237,-93.668,BEAC,Bear Creek, ,Kirby,AR
356,35.281,-92.285,WOOL,Woolly Hollow State Park,SP,Greenbrier,AR
128,33.698,-93.944,BEAL,Beards Lake - Millwood Lake,COE,Ashdown,AR
273,33.3,-92.462,OLDL,Old Lock and Dam 8,COE,El Dorado,AR
127,33.706,-93.936,BEAB,Beards Bluff - Millwood Lake,COE,Ashdown,AR
275,35.101,-93.653,OUTL,Outlet Area - Blue Mountain Lake,COE,Waveland,AR
276,34.239,-93.205,OZAN,Ozan Point - De Gray Lake,COE,Bismarck,AR
277,36.063,-93.16,OZAR,Ozark - Buffalo National River,NP,Jasper,AR
278,36.438,-92.647,OZAI,Ozark Isle - Bull Shoals Lake,COE,Oakland,AR
279,35.671,-93.448,OZON,Ozone,NF,Clarksville,AR
280,36.377,-92.259,PANT,Panther Bay - Norfolk Lake,COE,Mountain Home,AR
281,33.783,-94.006,PARA,Paraloma Landing - Millwood Lake,COE,Mineral Springs,AR
282,34.157,-93.735,PARK,Parker Creek - Lake Greeson,COE,Murfreesboro,AR
283,33.99,-91.359,PEND,Pendleton Bend,COE,Dumas,AR
272,35.538,-92.018,OL25,Old Highway 25 - Greers Ferry Lake,COE,Heber Springs,AR
284,35.115,-92.951,PETI,Petit Jean State Park,SP,Morrilton,AR
286,34.295,-92.099,LINB,Pine Bluff Aresenal Military,MIL,White Hall,AR
287,34.103,-94.4,PINR,Pine Ridge,COE,DeQueen,AR
288,35.398,-93.317,PINB,Piney Bay - Lake Dardanelle,COE,Russelville,AR
289,36.254,-90.971,POCA,Pocahontas City Park,CP,Pocahontas,AR
290,34.282,-93.29,POIN,Point Cedar - De Gray Lake,COE,Bismarck,AR
291,35.145,-92.772,POIR,Point Remove Park,COE,Morrilton,AR
292,36.39,-92.565,POIN,Point Return City Park,CP,Bull Shoals,AR
293,36.355,-94.053,PRAI,Prairie Creek - Beaver Lake,COE,Rogers,AR
294,34.957,-93.165,QUAC,Quarry Cove,COE,Plainview,AR
295,36.255,-92.242,QUAR,Quarry Cove - Norfolk Lake,COE,,AR
296,34.686,-94.372,QUEE,Queen Wilhelmina State Park,SP,Mena,AR
285,34.169,-93.729,PIKE,Pikeville - Lake Greeson,COE,Murfreesboro,AR
271,36.156,-91.057,OLDD,Old Davidsonville State Park,SP,Pocahontas,AR
270,36.444,-92.628,OAKL,Oakland - Bull Shoals Lake,COE,Mountain Home,AR
269,34.1,-94.388,OAK,Oak Grove,COE,DeQueen,AR
244,35.447,-94.379,LEEC,Lee Creek Public Use Area,CP,Van Buren,AR
245,34.667,-93.229,LENA,Lena Landing - Lake Ouachita,COE,Hot Springs,AR
246,34.232,-94.248,LITC,Little Coon Creek - Gillham Lake,COE,Wickes,AR
247,34.63,-93.473,LITF,Little Fir - Lake Ouachita,COE,Mount Ida,AR
248,34.87,-94.269,LITP,Little Pines,NF,Waldron,AR
249,34.899,-92.163,LITR,Little Rock AFB Military,MIL,,AR
250,33.349,-93.182,LOGO,Logoly State Park,SP,McNeil,AR
251,34.715,-90.696,LONE,Lone Pine,NF,Marianna,AR
252,35.549,-93.159,LONG,Long Pool,NF,Dover,AR
253,36.41,-93.896,LOSN,Lost Bridge North - Beaver Lake,COE,Rogers,AR
254,36.397,-93.903,LOSS,Lost Bridge South - Beaver Lake,COE,Rogers,AR
255,36.002,-93.388,LOSV,Lost Valley - Buffalo National River,NP,Ponca,AR
256,35.155,-93.807,MAGA,Magazine Municipal RV Park,CP,Magazine,AR
257,34.705,-90.688,MAPL,Maple Flat,NF,Jeffersonville,AR
258,34.831,-92.438,MAUM,Maumelle,COE,Little Rock,AR
259,34.032,-91.266,MERR,Merrisach Lake Park - Merrisach Lake,COE,Dumas,AR
260,35.582,-92.218,MILC,Mill Creek - Greers Ferry Lake,COE,Bee Branch,AR
261,34.731,-93.996,MILF,Mill Creek Family Camp,CP,Y City,AR
262,33.681,-94.0,MILS,Millwood State Park,SP,Ashdown,AR
263,33.301,-92.347,MORO,Moro Bay State Park,SP,Jersey,AR
264,35.174,-93.619,MOUM,Mount Magazine State Park,SP,Havana,AR
265,35.219,-93.247,MOUN,Mount Nebo State Park,SP,Dardanelle,AR
266,35.563,-92.198,NARR,Narrows - Greers Ferry Lake,COE,Greers Ferry,AR
267,33.949,-93.863,NASH,Nashville City Park,CP,Nashville,AR
268,33.988,-91.31,NOTR,Notrebes Bend,COE,Gillett,AR
297,34.617,-93.338,RABB,Rabbit Tail - Lake Ouachita,COE,Avant,AR
298,36.257,-90.285,RECT,Rector City Park,CP,Rector,AR
299,35.682,-93.786,REDD,Redding,NF,Ozark,AR
300,35.797,-92.934,RICH,Richland Creek,NF,Pelsor,AR
330,36.392,-93.878,STAK,Starkey - Beaver Lake,COE,Eureka Springs,AR
331,36.039,-93.336,STEE,Steel Creek - Buffalo National River,NP,Ponca,AR
332,34.568,-93.192,STEP,Stephens - Lake Ouachita,COE,Hot Springs,AR
333,34.6,-90.613,STOR,Storm Creek Lake,NF,West Helena,AR
334,35.543,-92.272,SUGA,Sugar Loaf - Greers Ferry Lake,COE,Choctaw,AR
335,35.169,-93.012,SWEE,Sweeden Island - Lake Dardanelle,COE,Atkins,AR
336,34.462,-92.114,TAR,Tar Camp,COE,Redfield,AR
337,35.078,-92.544,TOAD,Toad Suck Ferry,COE,Conway,AR
338,34.569,-93.47,TOMP,Tompkins Bend - Lake Ouachita,COE,Mount Ida,AR
339,34.212,-91.836,TRUL,Trulock - Arkansas River,COE,Pine Bluff,AR
340,36.475,-93.008,TUCK,Tucker Hollow - Bull Shoals Lake,COE,Lead Hill,AR
341,34.55,-93.511,TWIN,Twin Creek - Lake Ouachita,COE,Mount Ida,AR
342,35.987,-92.761,TYLE,Tyler Bend - Buffalo National River,NP,St Joe,AR
343,35.171,-90.727,VILL,Village Creek State Park,SP,Wynne,AR
344,35.486,-94.063,VINE,Vine Prairie,COE,Mulberry,AR
345,36.219,-94.016,WAR,War Eagle - Beaver Lake,COE,Springdale,AR
346,34.65,-93.531,WASH,Washita - Lake Ouachita,COE,Story,AR
347,35.107,-93.658,WAVE,Waveland - Blue Mountain Lake,COE,Waveland,AR
348,33.761,-94.059,WHICH,White Cliffs - Millwood Lake,COE,Mineral Springs,AR
349,33.689,-93.117,WHIT,White Oak Lake State Park,SP,Bluff City,AR
350,35.691,-93.957,WHIR,White Rock,NF,Mulberry,AR
351,33.979,-91.309,WILB,Wilbur D Mills,COE,Dumas,AR
352,34.701,-92.138,WILL,Willow Beach,COE,Scott,AR
353,36.155,-93.733,WITH,Withrow Springs State Park,SP,Huntsville,AR
354,35.674,-93.633,WOLF,Wolf Pen,NF,Oark,AR
329,34.239,-93.825,STAR,Star of the West, ,Kirby,AR
243,36.473,-92.922,LEAD,Lead Hill - Bull Shoals Lake,COE,Lead Hill,AR
328,35.15,-93.425,SPRL,Spring Lake,NF,Belleville,AR
326,35.424,-93.479,SPAD,Spadra - Lake Dardanelle,COE,Clarksville,AR
301,34.165,-91.737,RISI,Rising Star,COE,Grady,AR
302,34.64,-93.625,RIVB,River Bluff,NF,Mount Ida,AR
303,35.444,-94.071,RIRD,River Ridge - Ozark Lake,COE,Cecil,AR
304,34.951,-93.158,RIVR,River Road,COE,Ola,AR
305,33.692,-93.963,RIVE,River Run East - Millwood Lake,COE,Ashdown,AR
306,33.691,-93.967,RIVW,River Run West - Millwood Lake,COE,Ashdown,AR
307,34.693,-91.314,RIVE,Riverfront RV Park,CP,Clarendon,AR
308,35.247,-93.173,RIVE,Riverview - Lake Dardanelle,COE,Dardanelle,AR
309,36.354,-92.241,ROBI,Robinson Point - Norfolk Lake,COE,Mountain Home,AR
310,34.209,-93.759,ROCK,Rock Creek - Lake Greeson,COE,Kirby,AR
311,36.342,-93.934,ROCB,Rocky Branch - Beaver Lake,COE,Rogers,AR
312,34.612,-93.697,ROCS,Rocky Shoals,NF,Mount Ida,AR
313,36.125,-92.548,RUSH,Rush Landing - Buffalo National River,NP,Yellville,AR
314,34.322,-94.236,SANB,Sand Bar Bridge - Cossatot River State Park,SP,Umpire,AR
315,34.256,-91.985,SARC,Saracen Trace RV Park,CP,Pine Bluff,AR
316,33.739,-93.92,SARA,Saratoga Landing - Millwood Lake,COE,Saratoga,AR
317,34.236,-93.759,SELF,Self Creek - Lake Greeson,COE,Daisy,AR
318,35.124,-92.785,SEQU,Sequoya Park, ,Morrilton,AR
319,34.37,-94.024,SHAD,Shady Lake,NF,Athens,AR
320,35.54,-92.151,SHIL,Shiloh - Greers Ferry Lake,COE,Greers Ferry,AR
321,34.608,-93.831,SHIR,Shirley Creek,NF,Oden,AR
322,35.309,-93.43,SHOA,Shoal Bay - Lake Dardanelle,COE,Dardanelle,AR
323,35.641,-93.96,SHOR,Shores Lake,NF,Mulberry,AR
324,34.287,-93.27,SHOU,Shouse Ford - De Gray Lake,COE,Bismarck,AR
325,34.874,-93.687,SOUT,South Fourche,NF,Bluffton,AR
327,35.343,-94.298,SPRH,Spring Hill,COE,Van Buren,AR
242,34.187,-93.707,LAUR,Laurel Creek - Lake Greeson,COE,Kirby,AR
274,35.247,-93.157,OLDP,Old Post Road - Lake Dardanelle,COE,Dardanelle,AR
240,36.092,-94.37,LKWR,Lake Wedington Rec. Area,NF,Fayettville,AR
158,35.128,-92.787,CHEK,Cherokee,COE,Morrilton,AR
159,35.555,-92.076,CHER,Cherokee - Greers Ferry Lake,COE,Greers Ferry,AR
160,33.281,-91.225,CHIC,Chicot County RV Park,CP,Lake Village,AR
161,35.536,-92.382,CHOC,Choctaw - Greers Ferry Lake,COE,Heber Springs,AR
162,35.463,-93.946,CITA,Citadel Bluff, ,Cecil,AR
163,35.437,-94.167,CLEA,Clear Creek,COE,Alma,AR
164,34.318,-94.223,COSF,Cossatot Falls - Cossatot River State Park,SP,Wickes,AR
165,34.215,-94.235,COSS,Cossatot Reefs - Gillham Lake,COE,Gillham,AR
166,33.791,-93.966,COTT,Cottonshed Landing - Millwood Lake,COE,Mineral Springs,AR
167,34.963,-93.185,COUN,County Line,COE,Plainview,AR
168,35.477,-92.156,COVE,Cove Creek - Greers Ferry Lake,COE,Heber Springs,AR
157,34.517,-93.383,CHAR,Charlton,NF,Crystal Springs,AR
169,35.223,-93.622,COVL,Cove Lake  Complex,NF,Paris,AR
171,35.777,-90.7,CRAI,Craighead Forest Park,CP,Jonesboro,AR
172,36.406,-92.32,CRAN,Cranfield - Norfolk Lake,COE,Mountain Home,AR
173,34.041,-93.676,CRAT,Crater of Diamonds State Park,SP,Murfreesboro,AR
174,36.484,-93.287,CRIC,Cricket Creek,COE,Omaha,AR
175,33.144,-92.095,CROS,Crossett RV Park,AUTH,Crossett,AR
176,36.044,-90.664,CROW,Crowleys Ridge State Park,SP,Paragould,AR
177,34.479,-93.639,CRYL,Crystal,NF,Norman,AR
178,34.542,-93.357,CRYS,Crystal Springs - Lake Ouachita,COE,Hot Springs,AR
179,34.233,-93.74,DAIS,Daisy State Park,SP,Kirby,AR
180,34.145,-93.712,DAMA,Dam Area - Lake Greeson,COE,Murfreesboro,AR
181,36.382,-92.596,DAM2,Dam Site - Bull Shoals Lake,COE,Bull Shoals,AR
170,34.175,-93.669,COWH,Cowhide Cove - Lake Greeson,COE,Kirby,AR
156,35.286,-94.049,CHAR,Charleston Lake,CP,Charleston,AR
155,34.535,-93.08,CEDA,Cedar Glades Park,CP,Hot Springs,AR
154,34.663,-93.286,CEDF,Cedar Fourche - Lake Ouachita,COE,,AR
129,36.474,-93.767,BEAV,Beaver Town Park,CP,Beaver,AR
130,34.711,-90.697,BEEC,Beech Point,NF,Marianna,AR
131,36.36,-93.564,BERR,Berryville RV Park,CP,Berryville,AR
132,36.386,-92.237,BIDW,Bidwell Point - Norfolk Lake,COE,Mountain Home,AR
133,34.685,-93.812,BIGB,Big Brushy,NF,Pencil Bluff,AR
134,34.222,-94.243,BIGC,Big Coon Creek - Gillham Lake,COE,Wickes,AR
135,34.606,-93.414,BIGF,Big Fir,COE,Mount Ida,AR
136,35.974,-92.177,BLAN,Blanchard Springs,NF,Fifty Six,AR
137,34.196,-94.093,BLUR,Blue Ridge - Dierks Lake,COE,Dierks,AR
138,35.14,-93.916,BOON,Booneville Municipal Park,CP,Booneville,AR
139,34.58,-93.263,BRAD,Brady Mountain - Lake Ouachita,COE,Hot Springs,AR
140,35.49,-92.808,BROC,Brock Creek,NF,Jerusalem,AR
141,36.488,-92.794,BUCK,Buck Creek - Bull Shoals Lake,COE,Protem,AR
142,34.179,-93.731,BUCH,Buckhorn - Lake Greeson,COE,Murfreesboro,AR
143,34.613,-93.342,BUCV,Buckville - Lake Ouachita,COE,Avant,AR
144,36.073,-92.557,BUFP,Buffalo Point - Buffalo National River,NP,Yellville,AR
145,36.356,-92.591,BULS,Bull Shoals State Park,SP,Bull Shoals,AR
146,34.797,-92.314,BURN,Burns Park,CP,,AR
147,34.27,-93.181,CADD,Caddo Drive - De Gray Lake,COE,Arkadelphia,AR
148,35.176,-93.646,CAME,Cameron Bluff, ,Paris,AR
149,34.831,-92.285,CAMP,Camp Robinson RV Military,MIL,,AR
150,35.388,-93.503,CANC,Cane Creek - Lake Dardanelle,COE,Scranton,AR
241,36.373,-92.549,LKVU,Lakeview - Bull Shoals Lake,COE,Mountain Home,AR
152,34.962,-93.239,CART,Carter Cove,COE,Plainview,AR
153,35.984,-93.042,CARV,Carver - Buffalo National River,NP,Hasty,AR
182,35.527,-92.009,DAM1,Dam Site - Greers Ferry Lake,COE,Heber Springs,AR
183,36.433,-93.848,DAML,Dam Site Lake  - Beaver Lake,COE,Eureka,AR
151,33.933,-91.833,CANE,Cane Creek State park,SP,Star City,AR
185,34.247,-93.146,DEGR,DeGray Lake State Park,SP,Bismarck,AR
215,35.568,-93.641,HORS,Horsehead Lake,NF,Clarksville,AR
216,36.287,-94.024,HORB,Horseshoe Bend - Beaver Lake,COE,Rogers,AR
217,34.14,-94.094,HORS,Horseshoe Bend - Dierks Lake,COE,Lockesburg,AR
218,36.422,-93.891,INDI,Indian Creek - Beaver Lake,COE,Gateway,AR
219,34.227,-93.126,IRON,Iron Mountain - De Gray Lake,COE,Arkadelphia,AR
220,34.761,-93.073,IROS,Iron Springs,NF,Jessieville,AR
221,34.686,-93.373,IRON,Irons Fork - Lake Ouachita,COE,Story,AR
222,35.035,-93.845,JACK,Jack Creek,NF,Booneville,AR
223,35.637,-91.316,JACS,Jacksonport State Park,SP,Newport,AR
224,34.155,-94.102,JEFF,Jefferson Ridge - Dierks Lake,COE,Dierks,AR
225,35.511,-91.994,JOHN,John F Kennedy - Greers Ferry Lake,COE,Heber Springs,AR
226,34.582,-93.443,JOPL,Joplin - Lake Ouachita,COE,Mount Ida,AR
227,36.269,-92.194,JORD,Jordan - Norfolk Lake,COE,Salesville,AR
229,35.016,-93.863,KNOP,Knoppers Ford,NF,Booneville,AR
230,34.437,-92.919,LKCS,Lake Catherine State Park,SP,Hot Springs,AR
231,36.068,-91.153,LKCP,Lake Charles State Park,SP,Powhatan,AR
232,33.37,-91.197,LKCH,Lake Chicot State Park,SP,Lake Village,AR
233,35.249,-93.213,LKDC,Lake Dardanelle State Park,SP,Russellville,AR
234,35.972,-90.716,LKFS,Lake Frierson State Park,SP,Jonesboro,AR
235,35.649,-94.159,LKFT,Lake Ft. Smith State Park,SP,Mountainburg,AR
236,36.435,-93.76,LKLE,Lake Leatherwood City Park,CP,Eureka Springs,AR
237,34.61,-93.168,LKOU,Lake Ouachita State Park,SP,Mountain Pine,AR
238,35.534,-90.688,LKPS,Lake Poinsett State Park,SP,Harrisburg,AR
239,34.868,-92.82,LKSY,Lake Sylvia,NF,Perryville,AR
184,36.419,-93.848,DAMR,Dam Site River - Beaver Lake,COE,Eureka,AR
214,35.61,-92.15,HILL,Hill Creek - Greers Ferry Lake,COE,Greers Ferry,AR
213,34.626,-93.541,HI27,Highway 27 - Lake Ouachita,COE,Story,AR
228,34.233,-93.696,KIRB,Kirby Landing - Lake Greeson,COE,Kirby,AR
211,36.241,-94.031,HICK,Hickory Creek - Beaver Lake,COE,Springdale,AR
186,35.297,-93.275,DELA,Delaware Park, ,Dardanelle,AR
212,36.491,-92.774,HIGH,Highway 125 - Bull Shoals Lake,COE,Yellville,AR
187,34.547,-93.489,DENB,Denby Point - Lake Ouachita,COE,Mount Ida,AR
188,35.782,-94.25,DEVI,Devils Den State Park,SP,West Fork,AR
189,35.584,-92.177,DEVF,Devils Fork - Greers Ferry Lake,COE,Greers Ferry,AR
190,34.752,-92.262,DOWN,Downtown Riverside RV Park,CP,,AR
191,34.644,-93.633,DRAG,Dragover,NF,Pencil Bluff,AR
192,35.341,-93.435,DUBL,Dublin Park, ,Scranton,AR
194,36.054,-93.189,ERBI,Erbie - Buffalo National River,NP,Jasper,AR
195,33.66,-93.609,FARC,Fair City RV Park,CP,Hope,AR
196,35.571,-92.295,FARB,Fairfield Bay RV Campground,CP,Fairfield Bay,AR
197,35.738,-93.094,FAIR,Fairview,NF,Jasper,AR
198,35.312,-94.306,FORT,Fort Chaffee RV Military,MIL,Fort Smith,AR
193,34.256,-93.185,EDGE,Edgewood - De Gray Lake,COE,Arkadelphia,AR
207,35.677,-93.255,HAW,Haw Creek Falls,NF,Pelsor,AR
200,34.627,-93.66,FULT,Fulton Branch,NF,Mt. Ida,AR
201,36.421,-92.221,GAMA,Gamaliel - Norfolk Lake,COE,Gamaliel,AR
202,36.288,-92.267,GEOR,Georges Cove, ,Mountain Home,AR
203,33.06,-92.125,GRAN,Grand Marais County Park,CP,Felsenthal,AR
204,34.525,-93.036,GULP,Gulpha Gorge - Hot Springs National Park,NP,Hot Springs,AR
205,35.994,-92.212,GUNN,Gunner Pool,NF,Fifty Six,AR
206,36.314,-91.483,HARD,Hardy Camper Park,CP,Hardy,AR
210,33.498,-93.77,HERV,Hervey Access Camping,CP,Hervey,AR
208,35.501,-92.076,HEBE,Heber Springs - Greers Ferry Lake,COE,Heber Springs,AR
209,36.372,-92.233,HEND,Henderson - Norfolk Lake,COE,Mountain Home,AR
199,33.471,-94.006,FOUR,Four States Fairgrounds RV,CP,Texarkana,AR
215,32.902,-114.474,SQUA,Squaw Lake,BLM,Yuma,AZ
214,34.332,-110.936,SPIL,Spillway,NF,Heber,AZ
222,33.992,-109.548,SUNR,Sunrise Lake,RES,Eagar,AZ
212,32.699,-109.92,SOLD,Soldier Creek,NF,Safford,AZ
211,34.306,-110.886,SINK,Sinkhole,NF,Forest Lakes,AZ
213,32.417,-110.74,SPEN,Spencer Canyon,NF,Tucson,AZ
216,31.891,-109.167,STEW,Stewart,NF,Portal,AZ
220,35.679,-109.201,SUMM,Summit,RES,St. Michaels,AZ
218,33.55,-109.318,STRA,Strayhorse,NF,Alpine,AZ
219,33.293,-110.868,SULP,Sulphide Del Ray,NF,Globe,AZ
221,31.885,-109.175,SUNN,Sunny Flat,NF,Rodeo NM,AZ
223,34.171,-113.843,SWAN,Swansea Ghost Town,BLM,Parker,AZ
210,34.056,-109.724,SHUZ,Shush Bezahze,RES,McNary,AZ
217,32.592,-109.849,STOC,Stockton Pass,NF,Safford,AZ
209,34.063,-109.733,SHUT,Shush Be Tou,RES,McNary,AZ
196,32.393,-110.704,ROS1,Rose Canyon,NF,Tucson,AZ
207,34.307,-110.996,SHAR,Sharp Creek,NF,Payson,AZ
193,34.563,-111.219,ROCK,Rock Crossing,NF,Blue Ridge,AZ
224,36.032,-114.325,TEMP,Temple Bar Marina - Lake Mead National Rec Area,NRA,Temple Bar,AZ
194,34.034,-109.454,ROLF,Rolfe C. Hoyer,NF,Greer,AZ
195,32.759,-109.71,ROPE,Roper Lake State Park,SP,Safford,AZ
197,33.83,-110.979,ROS2,Rose Creek,NF,Young,AZ
198,31.784,-109.303,RUCF,Rucker Forest Camp,NF,Elfrida,AZ
208,34.195,-110.007,SHOW,Show Low Lake,CP,Show Low,AZ
199,31.78,-109.31,RUCK,Rucker Lake,NF,Douglas,AZ
201,0.0,-110.988,SAWM,Sawmill Flats,NF,,AZ
202,33.648,-111.013,SCHO,Schoolhouse,NF,Roosevelt,AZ
203,34.176,-109.96,SCOT,Scott Reservoir,NF,Lakeside,AZ
204,34.356,-111.283,SECO,Second Crossing,NF,Payson,AZ
205,33.966,-111.863,SEVE,Seven Springs,NF,Carefree,AZ
206,32.657,-109.858,SHAN,Shannon,NF,Safford,AZ
200,31.905,-109.279,RUST,Rustler Park,NF,Rodeo  NM,AZ
225,35.938,-112.123,TENX,TenX,NF,Tusayan,AZ
253,35.87,-114.66,WILL,Willow Beach  - Lake Mead National Rec Area,NRA,Henderson,AZ
227,33.688,-110.571,TIMB,Timber Camp,NF,Globe,AZ
192,32.883,-109.481,RIVW,Riverview,BLM,Sanchez,AZ
258,32.728,-114.423,YUMA,Yuma VFW,BLM,Yuma,AZ
257,34.613,-112.545,YAVA,Yavapai,NF,Prescott,AZ
256,33.965,-109.484,WINN,Winn,NF,Greer,AZ
255,35.436,-114.161,WINP,Windy Point,BLM,Kingman,AZ
254,33.667,-111.087,WINH,Windy Hill,NF,Roosevelt,AZ
252,33.494,-114.888,WILE,Wiley Wells Dispersed  - Mule Mountain,BLM,Quartzite,AZ
251,35.065,-113.871,WILD,Wild Cow Springs,BLM,Kingman,AZ
250,31.562,-109.721,WHIT,Whitewater Draw,BLM,Tombstone,AZ
249,33.566,-112.499,WHIT,White Tank Mountain,CP,Litchfield Park,AZ
248,34.509,-112.477,WHIS,White Spar,NF,Prescott,AZ
247,31.395,-111.089,WHIR,White Rock,NF,Nogales,AZ
246,35.119,-112.017,WHIH,White Horse Lake,NF,Williams,AZ
245,36.215,-109.092,WHEA,Wheatfields Lake,RES,Fort Defiance,AZ
244,31.865,-109.359,WEST,West Turkey Creek,NF,Douglas,AZ
243,33.79,-109.413,WESF,West Fork,NF,Alpine,AZ
242,34.592,-112.422,WATS,Watson Lake Park,CP,Prescott,AZ
228,34.329,-111.093,TONT,Tonto Creek,NF,Payson,AZ
229,33.529,-111.396,TORT,Tortilla,NF,Apache Junction,AZ
230,36.053,-112.113,TRAI,Trailer Village - Grand Canyon National Park,NP,Grand Canyon,AZ
231,31.942,-112.811,TWIN,Twin Peaks - Organ Pipe Cactus National Monument,NM,Lukeville,AZ
232,33.633,-111.203,UPPB,Upper Burnt Corral,NF,Apache Junction,AZ
233,34.288,-110.806,UPPC,Upper Canyon Creek,NF,Young,AZ
226,34.365,-111.281,THIR,Third Crossing,NF,Payson,AZ
234,33.269,-109.347,UPPJ,Upper Juan Miller,NF,Clifton,AZ
236,33.476,-111.619,USER,Usery Mountain,CP,Mesa,AZ
237,34.244,-110.797,VALE,Valentine Ridge,NF,Heber,AZ
238,36.951,-113.794,VIRG,Virgin River,BLM,Littlefield,AZ
239,33.881,-112.821,VULT,Vulture Peak Rd - Box Wash dispersed,BLM,Wickenburg,AZ
240,36.996,-111.496,WAHW,Wahweap - Glen Canyon National Rec Area,NRA,Page,AZ
241,34.352,-111.286,WATE,Water Wheel,NF,Payson,AZ
235,34.339,-111.094,UPPT,Upper Tonto Creek,NF,Payson,AZ
191,33.81,-111.647,RIVS,Riverside,NF,Carefree,AZ
168,32.538,-110.716,PEPP,Peppersauce,NF,Oracle,AZ
189,34.306,-110.908,RIM,Rim,NF,Forest Lakes,AZ
67,33.804,-109.32,DEER,Deer Creek,NF,Alpine,AZ
66,34.754,-112.019,DEAD,Dead Horse Ranch State Park,SP,Cottonwood,AZ
65,36.412,-112.135,DEMO,De Motte,NF,Jacob Lake,AZ
64,33.594,-111.222,DAVW,Davis Wash,NF,Apache Junction,AZ
63,35.183,-114.563,DAVS,Davis Camp - Mohave County,CP,Bullhead City,AZ
62,32.35,-112.83,DARB,Darby Wells Rd Dispersed,BLM,Ajo,AZ
61,34.956,-111.485,DAIR,Dairy Springs,NF,Mormon Lake,AZ
60,31.774,-109.313,CYPR,Cypress Park,NF,Douglas,AZ
59,33.872,-109.418,CUTT,Cutthroat,NF,Eagar,AZ
68,32.436,-112.827,DENN,Dennison Campground - Ajo Regional Park,CP,Ajo,AZ
58,32.68,-109.891,CUNN,Cunningham,NF,Safford,AZ
56,34.318,-110.942,CROO,Crook,NF,Forest Lakes,AZ
55,33.577,-111.253,CRAB,Crabtree Wash,NF,Apache Junction,AZ
54,36.148,-109.539,COTT,Cottonwood - Canyon de Chelly National Monument,NM,Chinle,AZ
53,33.448,-114.9,COON,Coon Hollow Dispersed  LTVA - Mule Mountain,BLM,Quartzite,AZ
52,33.547,-111.646,COON,Coon Bluff,NF,Mesa,AZ
51,33.981,-112.711,CONS,Constellation Park,CP,Wickenburg,AZ
50,31.922,-109.967,COCH,Cochise Stronghold,NF,Sunsites,AZ
49,33.103,-109.06,COAL,Coal Creek,NF,Clifton,AZ
48,34.555,-111.315,CLIN,Clints Well,NF,Happy Jack,AZ
57,34.214,-114.215,CROS,Crossroads,BLM,Lake Havasu Ci,AZ
47,34.515,-111.765,CLEA,Clear Creek,NF,Camp Verde,AZ
69,32.863,-114.445,DESE,Desert Breeze Military - Yuma PG,MIL,Yuma,AZ
71,33.819,-109.3,DIAR,Diamond Rock,NF,Alpine,AZ
91,32.219,-111.143,GILB,Gilbert Ray,CP,Tucson,AZ
90,33.394,-110.787,GILA,Gila County RV Park,CP,Globe,AZ
89,32.882,-112.73,GILA,Gila Bend Military,MIL,Gila Bend,AZ
88,34.302,-110.712,GENT,Gentry,NF,Payson,AZ
87,32.378,-110.685,GENE,General Hitchcock,NF,Tucson,AZ
86,31.529,-110.329,GARD,Garden Canyon  Military - Fort Huachuca,MIL,Sierra Vista,AZ
85,33.929,-109.487,GABA,Gabaldon,NF,Eager,AZ
84,32.833,-110.342,FOUR,Fourmile Canyon,BLM,Klondyke,AZ
83,32.724,-114.453,FORP,Fortuna Pond,BLM,Yuma,AZ
70,36.039,-111.823,DESE,Desert View - Grand Canyon National Park,NP,Grand Canyon,AZ
82,35.139,-111.693,FORT,Fort Tuthill Military - Luke AFB,MIL,Flagstaff,AZ
80,35.023,-111.398,FORK,Forked Pine,NF,Flagstaff,AZ
79,34.266,-110.073,FOOH,Fool Hollow State Rec Area,SRA,Show Low,AZ
78,34.303,-111.352,FLOW,Flowing Springs,NF,Payson,AZ
77,34.343,-111.29,FIRS,First Crossing,NF,Payson,AZ
76,33.824,-110.938,FALL,Falls,NF,Young,AZ
75,33.385,-112.376,ESTR,Estrella Mountain Regional Park,CP,Goodyear,AZ
74,33.821,-109.539,DRIF,Drift Fence Lake,RES,Greer,AZ
73,34.943,-111.493,DOUB,Double Springs,NF,Flagstaff,AZ
72,35.213,-112.126,DOGT,Dogtown Lake,NF,Williams,AZ
81,35.142,-111.693,FORT,Fort Tuthill County Park,CP,Flagstaff,AZ
92,33.187,-109.382,GRAN,Granville,NF,Morenci,AZ
46,34.308,-111.035,CHRI,Christopher Creek,NF,Payson,AZ
44,33.732,-111.203,CHOL,Cholla,NF,Roosevelt,AZ
18,31.727,-110.876,BOGS,Bog Springs,NF,Green Valley,AZ
17,34.591,-111.201,BLUE,Blue Ridge,NF,Winslow,AZ
16,33.057,-109.08,BLAK,Black Jack,NF,Clifton,AZ
15,34.305,-110.743,BLAC,Black Canyon Rim,NF,Forest Lakes,AZ
14,33.746,-111.226,BERM,Bermuda Flat,NF,Roosevelt,AZ
13,34.044,-109.449,BENN,Benny Creek,NF,Eagar,AZ
12,34.67,-111.714,BEAV,Beaver Creek,NF,Camp Verde,AZ
11,31.781,-109.307,BATH,Bathtub,NF,Elfrida,AZ
10,33.84,-111.639,BART,Bartlett Flat,NF,Carefree,AZ
19,32.011,-109.355,BONC,Bonita Canyon - Chiricahua National Monument,NP,Willcox,AZ
9,33.714,-111.204,BACH,Bachelors Cove,NF,Roosevelt,AZ
7,34.327,-110.946,ASPN,Aspen,NF,Payson,AZ
6,35.018,-111.409,ASHU,Ashurst Lake,NF,Flagstaff,AZ
5,32.649,-109.819,ARCA,Arcadia,NF,Safford,AZ
4,31.56,-110.366,APAF,Apache Flats Military -  Fort Huachuca,MIL,Sierra Vista,AZ
3,34.589,-112.561,ALTO,Alto Pit,NF,Prescott,AZ
2,33.895,-109.153,ALPI,Alpine Divide,NF,Alpine,AZ
1,34.231,-113.579,ALAM,Alamo Lake State Park,SP,Wenden,AZ
0,32.18,-110.861,AGAV,Agave Gulch Military,MIL,,AZ
190,34.254,-114.141,RIVI,River Island  - Buckskin State Park,SP,Parker,AZ
8,33.807,-109.314,ASPE,Aspen,NF,,AZ
45,33.719,-111.205,CHOB,Cholla Bay,NF,Roosevelt,AZ
20,33.065,-109.576,BONT,Bonito,NF,,AZ
23,34.071,-109.918,BOOL,Bootlegger,NF,,AZ
43,34.353,-111.702,CHIL,Childs,NF,,AZ
42,34.591,-110.788,CHEC,Chevelon Crossing,NF,Heber,AZ
41,34.509,-110.841,CHEV,Chevelon Canyon Lake,NF,Heber,AZ
40,33.789,-113.561,CENT,Centennial Park,CP,Wenden,AZ
39,33.971,-111.865,CCC,CCC,NF,Carefree,AZ
38,34.996,-111.74,CAVE,Cave Springs,NF,,AZ
37,33.824,-112.015,CAVC,Cave Creek Rec Area,CP,Cave Creek,AZ
36,34.354,-114.171,CATT,Cattail Cove State Park,SP,Lake Havasu City,AZ
35,32.416,-110.938,CATL,Catalina State Park,SP,Tucson,AZ
21,35.372,-111.556,BONI,Bonito - Sunset Crater National Monument,NP,Flagstaff,AZ
34,35.125,-111.599,CANV,Canyon Vista,NF,Flagstaff,AZ
32,31.758,-109.37,CAMR,Camp Rucker, ,Douglas,AZ
31,34.538,-113.45,BURR,Burro Creek,BLM,Wikieup,AZ
30,33.626,-111.203,BURN,Burnt Corral,NF,Roosevelt,AZ
29,33.768,-109.355,BUFF,Buffalo Crossing,NF,Alpine,AZ
28,34.254,-114.161,BUCK,Buckskin State Park,SP,Parker,AZ
27,33.277,-112.642,BUCK,Buckeye Hills Co Park,CP,Buckeye,AZ
26,33.876,-109.413,BROO,Brookchar,NF,Eagar,AZ
25,33.74,-111.66,BOXB,Box Bar,NF,Scottsdale,AZ
24,33.928,-114.02,BOUS,Bouse Community Park,CP,Bouse,AZ
33,34.32,-110.823,CANP,Canyon Point,NF,,AZ
93,33.641,-111.045,GRAP,Grapevine Bay,NF,Globe,AZ
22,34.969,-111.75,BOOT,Bootlegger,NF,Sedona,AZ
95,32.238,-112.751,GUNS,Gunsite Wash Dispersed,BLM,Why,AZ
163,33.396,-114.723,OXBO,Oxbow,BLM,,AZ
162,32.967,-109.309,OWLC,Owl Creek,BLM,Threeway,AZ
161,33.762,-111.253,ORAN,Orange Peel,NF,,AZ
160,33.308,-111.051,OAKF,Oak Flat,NF,Superior,AZ
159,36.211,-112.061,NORT,North Rim - Grand Canyon National Park,NP,,AZ
158,34.714,-114.435,NEER,Needle Mt Road Dispersed,BLM,Topock,AZ
157,36.682,-110.543,NAVA,Navajo National Monument,NM,Kayenta,AZ
156,32.337,-110.692,MOLI,Molino Basin,NF,Tucson,AZ
155,34.321,-110.957,MOGO,Mogollon,NF,Forest Lakes,AZ
164,33.773,-109.535,PACH,Pacheta Lake,RES,Alpine,AZ
154,32.817,-114.472,MITL,Mittry Lake Dispersed,BLM,Yuma,AZ
152,34.693,-112.12,MING,Mingus Mountain,NF,Clarkdale,AZ
151,33.701,-111.194,MILL,Mills Cove,NF,,AZ
150,33.727,-114.659,MIDL,Midland LTVA Dispersed,BLM,Quartzite,AZ
149,34.968,-110.645,MCHO,McHood,CP,Winslow,AZ
148,33.684,-111.722,MCDO,McDowell Mountain,CP,Fountain Hills,AZ
147,34.045,-109.73,MCCO,McCoy Bridge,RES,McNary,AZ
146,36.05,-112.12,MATH,Mather - Grand Canyon National Park,NP,Grand Canyon,AZ
145,34.936,-111.745,MANZ,Manzanita,NF,,AZ
144,34.517,-112.388,LYNX,Lynx Lake,NF,Prescott,AZ
153,36.981,-110.113,MITT,Mitten View - Monument Valley,RES,,AZ
143,34.359,-109.376,LYMA,Lyman Lake State Park,SP,St. Johns,AZ
165,35.452,-114.17,PACK,Packsaddle,BLM,Kingman,AZ
167,31.49,-110.854,PATA,Patagonia Lake State Park,SP,Patagonia,AZ
188,32.708,-109.963,RIGG,Riggs Flat,NF,Safford,AZ
187,33.844,-109.5,RESE,Reservation Lake,RES,Alpine,AZ
94,33.873,-109.413,GRAY,Grayling,NF,Eagar,AZ
186,33.476,-111.62,REGI,Regional Park - Usery Mt RA,CP,Mesa,AZ
185,31.429,-110.29,REEF,Reef Townsite,NF,Sierra Vista,AZ
184,31.428,-110.304,RAMS,Ramsey Vista,NF,Sierra Vista,AZ
183,33.876,-109.404,RAIN,Rainbow,NF,Greer,AZ
182,33.799,-109.329,RACC,Raccoon,NF,Alpine,AZ
181,33.663,-114.217,QPOS,Quartzite - La Posa,BLM,Quartzite,AZ
166,33.023,-113.048,PAIN,Painted Rock,BLM,Gila Bend,AZ
180,33.66,-114.2,QVAL,Quartzite - La Paz Valley,BLM,Quartzite,AZ
178,34.711,-112.154,POTA,Potato Patch,NF,Clarkdale,AZ
177,34.299,-111.113,POND,Ponderosa,NF,Payson,AZ
175,31.933,-109.271,PINE,Pinery Canyon,NF,Portal,AZ
174,35.028,-111.462,PING,Pinegrove,NF,Flagstaff,AZ
173,35.224,-111.812,PINE,Pine View RV Military - Camp Navajo,MIL,Bellemont,AZ
172,35.013,-111.738,PINF,Pine Flat,NF,Sedona,AZ
171,33.287,-110.83,PINA,Pinal,NF,Globe,AZ
170,32.646,-111.398,PICA,Picacho Peak State Park,SP,Picacho,AZ
169,33.546,-111.66,PHON,Phon D Sutton,NF,New Franklin,AZ
179,34.578,-112.069,POWE,Powell Springs,NF,Camp Verde,AZ
142,33.835,-109.082,LUNA,Luna Lake,NF,Alpine,AZ
176,33.28,-110.797,PION,Pioneer Pass,NF,Globe,AZ
140,33.995,-109.885,LOWL,Lower Log,RES,Hon-Dah,AZ
115,33.767,-111.239,INDP,Indian Point,NF,Roosevelt,AZ
114,34.479,-112.497,INDC,Indian Creek,NF,Prescott,AZ
113,32.904,-114.489,IMPE,Imperial Dam Long Term,BLM,,AZ
112,31.898,-109.161,IDLE,Idlewilde,NF,Rodeo  NM,AZ
111,33.324,-110.803,ICEH,Ice House CCC,NF,Globe,AZ
110,35.097,-113.879,HUAL,Hualapai Mountain Park,CP,Kingman,AZ
109,34.271,-111.32,HOUS,Houston Mesa,NF,Payson,AZ
108,32.55,-109.396,HOTW,Hot Well Dunes,BLM,Safford,AZ
107,32.666,-109.874,HOSP,Hospital Flat,NF,Safford,AZ
116,36.716,-112.214,JACO,Jacob Lake,NF,Jacob Lake,AZ
106,34.028,-109.683,HORC,Horseshoe Cienega,RES,McNary,AZ
103,33.475,-109.481,HONE,Honeymoon,NF,Clifton,AZ
102,35.024,-110.63,HOMO,Homolovi Ruins State Park,SP,Winslow,AZ
101,34.511,-112.381,HILL,Hilltop,NF,Prescott,AZ
100,31.873,-109.234,HERB,Herb Martyr,NF,Portal,AZ
99,34.17,-112.285,HAZL,Hazlett Hollow,NF,Crown King,AZ
141,34.455,-112.46,LOWE,Lower Wolf Creek,NF,Prescott,AZ
96,34.218,-110.964,HAIG,Haigler Canyon,NF,Young,AZ
98,33.991,-109.758,HAWL,Hawley Lake,RES,McNary,AZ
97,33.636,-109.329,HANN,Hannagan,NF,Alpine,AZ
105,33.977,-111.717,HORH,Horseshoe,NF,Carefree,AZ
117,31.878,-109.222,JOHN,John Hands,NF,Rodeo NM,AZ
104,33.788,-109.344,HORS,Horse Springs,NF,Alpine,AZ
118,33.591,-110.643,JONE,Jones Water,NF,Globe,AZ
138,33.464,-111.481,LOST,Lost Dutchman State Park,SP,Apache Junction,AZ
135,36.86,-111.604,LEES,Lees Ferry - Glen Canyon Area,NRA,Marble Canyon,AZ
134,31.429,-110.448,LAKV,Lakeview,NF,Sonoita,AZ
133,35.067,-111.497,LAKE,Lakeview,NF,Flagstaff,AZ
136,35.359,-111.621,LOCK,Lockett Meadow,NF,Flagstaff,AZ
131,33.864,-112.319,LAKP,Lake Pleasant,CP,Peoria,AZ
130,32.986,-114.476,LAKE,Lake Martinez Military,MIL,Yuma,AZ
129,34.423,-114.224,LAKH,Lake Havasu State Park,SP,Lake Havasu,AZ
128,34.227,-114.193,LAPZ,La Paz County Park,CP,Parker,AZ
127,33.576,-109.355,KPCI,KP Cienega,NF,Alpine,AZ
132,34.158,-109.979,LAKS,Lakeside,NF,Lakeside,AZ
126,34.427,-111.093,KNOL,Knoll Lake,NF,Blue Ridge,AZ
119,35.281,-112.157,KAIB,Kaibab Lake,NF,Williams,AZ
139,33.267,-109.341,LOWJ,Lower Juan Miller,NF,Clifton,AZ
120,31.817,-110.347,KART,Kartchner Caverns State Park,SP,Benson,AZ
121,35.222,-114.564,KATH,Katherine Landing - Lake Mead National Rec Area,NRA,Bullhead City,AZ
137,34.142,-109.776,LOSB,Los Burros,NF,Lakeside,AZ
123,34.436,-111.317,KEHL,Kehl Springs,NF,Clints Well,AZ
124,34.175,-112.277,KENT,Kentuck Springs,NF,Crown King,AZ
125,34.897,-111.312,KINN,Kinnikinick,NF,Flagstaff,AZ
122,35.813,-110.204,KEAM,Keams Canyon Community Park,CP,Keams Canyon,AZ
298,35.777,-120.719,CAMR,Camp Roberts Military,MIL,San Miguel,CA
297,38.936,-120.043,CAMR,Camp Richardson Complex,NF,South Lake Tahoe,CA
296,37.707,-121.891,CAMP,Camp Parks Military,MIL,Dublin,CA
295,37.639,-118.991,CAMH,Camp High Sierra,CP,Mammoth Lakes,CA
294,37.122,-119.306,CAME,Camp Edison,UTIL,Shaver Lake,CA
293,34.426,-119.26,CAMC,Camp Comfort,CP,Ojai,CA
291,36.861,-119.123,CA45,Camp 4 1/2,NF,Fresno,CA
290,36.858,-119.111,CAM4,Camp 4 - Yosemite National Park,NF,Fresno,CA
285,38.272,-120.288,CALA,Calaveras Big Trees State Park,SP,Arnold,CA
288,38.88,-120.414,CACO,Camino Cove,NF,Pollock Pines,CA
287,38.83,-122.696,CALS,Calso - Boggs Mountain Demo Forest,SF,,CA
286,34.941,-116.867,CALG,Calico Ghost Town Regional Park,CP,Yermo,CA
292,35.695,-118.436,CAM9,Camp 9,NF,Kernville,CA
289,35.81,-118.454,CAM3,Camp 3,NF,Kernville,CA
307,39.52,-121.0,CARF,Carlton Flat,NF,Downieville,CA
300,38.934,-120.065,CAMP,Camp Shelley,CP,South Lake Tah,CA
315,34.506,-118.606,CAST,Castaic Lake,CP,Santa Clarita,CA
314,33.54,-117.557,CASP,Caspers Wilderness Park,CP,San Juan Capis,CA
284,39.521,-120.988,CALI,Cal Ida,NF,Camptonville,CA
313,33.54,-117.557,CAWP,Caspers Wilderness Park,CP,Trabuco Canyon,CA
312,33.54,-117.557,CASP,Caspers Wilderness County Park,CP,San Juan Capistrano,CA
311,38.28,-119.97,CASC,Cascade Creek,NF,Mi-Wuk,CA
310,39.401,-120.64,CARR,Carr Lake,NF,Nevada City,CA
299,35.323,-120.738,CAMS,Camp San Luis Obispo RV Military,MIL,San Luis Obispo,CA
309,34.392,-119.521,CARP,Carpinteria State Beach,SB,Carpinteria,CA
316,41.15,-122.318,CASP,Castle Crags State Park,SP,Castella,CA
306,38.651,-120.406,CAPP,Capps Crossing,NF,Pollock Pines,CA
305,38.706,-120.054,CAPL,Caples Lake,NF,Kit Carson,CA
304,36.788,-118.666,CANV,Canyon View - Sequoia and Kings Canyon National Park,NP,Cedar Grove,CA
303,39.438,-120.58,CANY,Canyon Creek,NF,,CA
302,34.833,-119.204,CAMA,Campo Alto,NF,Pine Mountain,CA
301,38.942,-119.975,CAML,Campground by the Lake,CP,South Lake Tahoe,CA
308,37.628,-121.529,CARN,Carnegie State Vehicle Rec Area,SP,Tracy,CA
283,38.595,-121.434,CALX,Cal Expo RV Park,CP,Sacramento,CA
263,36.521,-118.764,BUCF,Buckeye Flat - Sequoia National Park,NP,Three Rivers,CA
281,38.916,-122.319,CACC,Cache Creek Canyon County Park,CP,Woodland,CA
260,37.009,-119.06,BUCM,Buck Meadow,NF,Shaver Lake,CA
259,37.346,-118.396,BROW,Browns Town CG (Concession),CP,Bishop,CA
258,37.346,-118.396,BRON,Browns Town,CP,Bishop,CA
257,35.103,-118.537,BRIT,Brite Lake,CP,Tehachapi,CA
256,38.353,-119.849,BRIG,Brightman,NF,Mi-Wuk,CA
255,41.65,-123.113,BRIF,Bridge Flat,NF,Ft. Jones,CA
261,36.722,-118.854,BUCR,Buck Rock,NF,,CA
254,40.873,-122.915,BRIC,Bridge Camp,NF,Weaverville,CA
252,37.663,-119.624,BRIV,Bridalveil Creek - Yosemite National Park,NP,,CA
251,37.038,-119.241,BRET,Bretz,NF,Shaver Lake,CA
250,35.469,-118.584,BREC,Breckenridge,NF,Caliente,CA
317,41.236,-122.379,CAST,Castle Lake,NF,Mt.Shasta,CA
249,38.111,-121.694,BRAI,Brannan Island State Rec Area,SRA,Rio Vista,CA
248,40.618,-122.576,BRAN,Brandy Creek RV,NP,Redding,CA
253,40.73,-121.437,BRID,Bridge,NF,Old Station,CA
262,38.237,-119.348,BUCE,Buckeye,NF,Bridgeport,CA
264,34.346,-117.913,BUCK,Buckhorn,NF,La Canada,CA
265,39.811,-122.362,BUCA,Buckhorn Rec Area,COE,Orland,CA
280,34.333,-117.7,CABI,Cabin Flat,NF,Big Pines,CA
279,34.869,-119.23,CABA,Caballo,NF,Maricopa,CA
278,32.725,-114.892,BUTT,ButtercupÃ‚Â Ã‚Â OHV,BLM,Winterhaven,CA
277,40.078,-121.559,BUTM,Butte Meadows,NF,Chester,CA
276,40.564,-121.304,BUTL,Butte Lake - Lassen Volcanic National Park,NP,Old Station,CA
275,40.611,-121.297,BUTT,Butte Creek,NF,,CA
274,37.232,-122.326,BUTA,Butano State Park,SP,Pescadero,CA
273,40.854,-122.817,BUST,Bushytail,NF,Trinity Center,CA
272,39.23,-123.166,BUSH,Bushay,COE,Ukiah,CA
271,32.861,-116.421,BURR,Burnt Rancheria,NF,Pine Valley,CA
270,40.828,-123.482,BURN,Burnt Ranch,NF,,CA
269,40.309,-123.909,BURL,Burlington - Humboldt Redwoods State Park,SP,Weott,CA
268,41.554,-121.573,BULL,Bullseye Lake,NF,McCloud,CA
267,39.452,-121.13,BULS,Bullards Lakeshore,NF,Camptonville,CA
266,35.229,-119.261,BUEN,Buena Vista Aquatic Rec Area,CP,Bakersfield,CA
282,34.698,-119.913,CACH,Cachuma,NF,Santa Ynez,CA
318,37.7,-121.183,CASW,Caswell Memorial State Park,SP,Ripon,CA
363,39.543,-120.315,COLD,Cold Creek,NF,Sierraville,CA
320,41.259,-121.94,CATC,Cattle Camp,NF,McCloud,CA
372,40.047,-120.368,CONK,Conklin Park Family .,NF,Portola,CA
371,39.205,-122.018,COLF,Colusa County Fairgrounds,CP,Colusa,CA
370,39.218,-122.015,COLU,Colusa - Sacramento River State Rec Area,SRA,Colusa,CA
369,34.94,-120.17,COLN,Colson,NF,Santa Maria,CA
368,35.868,-119.386,COLO,Colonel Allensworth State Historic Park,SP,Earlimart,CA
367,37.252,-119.17,COLL,College,NF,Lakeshore,CA
373,38.011,-121.821,CONT,Contra Costa County Fair RV Park,CP,Antioch,CA
366,37.597,-118.999,COLW,Coldwater,NF,ammoth Lakes,CA
364,36.452,-118.611,COLS,Cold Springs - Sequoia National Park,NP,Three Rivers,CA
362,36.152,-118.743,COFF,Coffee Camp,NF,Springville,CA
361,37.214,-119.962,CODO,Codorniz Rec Area,COE,Chowchilla,CA
360,35.108,-120.623,COAS,Coastal Dunes RV Park,CP,Oceano,CA
359,38.804,-123.024,CLOF,Cloverdale Citrus Fair,CP,Cloverdale,CA
358,37.529,-119.28,CLOV,Clover Meadow,NF,,CA
365,34.291,-117.84,COLB,Coldbrook,NF,,CA
374,36.818,-118.831,CONV,Convict Flat,NF,,CA
375,37.597,-118.849,CONL,Convict Lake,NF,Mammoth Lakes,CA
376,40.145,-121.166,COOL,Cool Springs,UTIL,Almanor,CA
247,34.823,-117.923,BRAN,Branch Park - Edwards AFB,MIL,Lancaster,CA
390,37.078,-121.528,COYO,Coyote Lake County Park,CP,Gilroy,CA
389,36.127,-118.619,COYF,Coy Flat,NF,Springville,CA
388,39.056,-123.05,COWM,Cow Mountain Rec Area,BLM,Ukiah,CA
387,39.891,-120.209,COTS,Cottonwood Springs Family .,NF,Chilcoot,CA
386,41.431,-121.061,COTF,Cottonwood Flat,NF,Canby,CA
385,33.748,-115.825,COWD,Cottonwood - Joshua Tree National Park,NP,Indio,CA
384,39.549,-120.317,COTW,Cottonwood,NF,Sierraville,CA
383,34.639,-118.503,COTT,Cottonwood,NF,Lake Hughes,CA
382,32.777,-116.309,COTD,Cottonwood,BLM,Boulevard,CA
381,33.474,-115.888,CORV,Corvina Beach  - Salton Sea State Rec Area,SRA,,CA
380,32.711,-116.573,CORR,Corral Canyon,NF,Pine Valley,CA
379,33.626,-115.326,CORN,Corn Springs,BLM,Corn Springs,CA
378,40.746,-122.804,COOP,Cooper Gulch,NF,Lewiston,CA
377,33.448,-114.903,COON,Coon Hollow,BLM,,CA
357,41.971,-124.204,CLIF,Clifford Kamph Co Park,CP,Smith River,CA
319,37.251,-119.182,CATA,Catavee,NF,Lakeshore,CA
356,39.008,-122.814,CLEA,Clear Lake State Park,SP,Kelseyville,CA
354,40.857,-122.812,CLAR,Clark Springs,NF,Trinity Center,CA
334,39.206,-123.184,CHEK,Chekaka,COE,Ukiah,CA
333,39.631,-120.543,CHAP,Chapman Creek,NF,Sierra City,CA
332,38.625,-122.288,CHAP,Chaparral Cove - Lake Berryessa - USBR,BOR,Napa,CA
331,34.162,-119.221,CHAN,Channel Islands Coast Guard Military,MIL,Oxnard,CA
330,37.982,-120.516,CHAM,Chamise - Tuttletown Area - New Melones Lake,BOR,Columbia,CA
329,35.424,-120.741,CERR,Cerro Alto,NF,Atascadero,CA
335,40.103,-121.497,CHER,Cherry Hill,NF,Chester,CA
328,38.632,-119.72,CENT,Centerville Flat,NF,,CA
326,41.56,-120.294,CEDP,Cedar Pass,NF,Cedarville,CA
325,35.749,-118.582,CEDC,Cedar Creek,NF,Wofford Heights,CA
324,39.264,-122.699,CEDA,Cedar Camp,NF,Stonyford,CA
323,41.979,-120.204,CAVL,Cave Lake,NF,New Pine Creek,CA
322,40.685,-121.423,CAVE,Cave,NF,Old Station,CA
321,37.935,-119.144,CATT,Cattleguard,NF,Lee Vining,CA
327,32.975,-115.176,CEME,Cement Flats - Imperial Sand Dunes OHV,BLM,Brawley,CA
336,37.987,-119.915,CHEV,Cherry Valley,NF,Groveland,CA
337,35.824,-118.462,CHIC,Chico Flat,NF,Kernville,CA
338,34.321,-118.016,CHIS,Chilao,NF,La Canada,CA
353,38.396,-119.8,CLAF,Clark Fork,NF,Mi-Wuk,CA
352,41.0,-124.115,CLAB,Clam Beach County Park,CP,Arcata,CA
351,32.777,-116.447,CIBB,Cibbets Flat,NF,Pine Valley,CA
350,34.813,-119.123,CHUL,Chula Vista,NF,Frazier Park,CA
349,34.785,-119.001,CHUC,Chuchupate,NF,Frazier Park,CA
348,40.568,-120.836,CHRI,Christie,NF,Susanville,CA
347,38.394,-119.456,CHRF,Chris Flat,NF,Walker,CA
346,36.822,-119.363,CHOI,Choinumni,CP,Piedra,CA
345,33.92,-117.824,CHIN,Chino Hills - State Park,SP,Chino Hills,CA
344,38.754,-120.268,CHIT,China Flat,NF,Kyburz,CA
343,38.002,-122.48,CHIC,China Camp State Park,SP,San Rafael,CA
342,35.839,-118.043,CHIM,Chimney Creek,BLM,Inyokern,CA
341,38.734,-120.538,CHIM,Chimney  - Sly Park Recreation Area,CP,Pollock Pines,CA
340,37.37,-119.539,CHIL,Chilkoot,NF,Oakhurst,CA
339,39.866,-120.166,CHIF,Chilcoot Family .,NF,Chilcoot,CA
355,40.931,-122.586,CLEC,Clear Creek,NF,Lakehead,CA
246,39.438,-120.089,BOYI,Boyington Mill,NF,Truckee,CA
151,34.9,-120.141,BARR,Barrel Springs,NF,Santa Maria,CA
244,33.587,-115.977,BOXC,Box Canyon Dispersed,BLM,Mecca,CA
150,34.883,-119.444,BALL,Ballinger,NF,Maricopa,CA
149,37.79,-118.888,BALD,Bald Mountain Springs,NF,,CA
148,36.223,-118.675,BALC,Balch Park,CP,Springville,CA
147,37.169,-118.308,BACC,Baker Creek,CP,Big Pine,CA
146,38.324,-119.752,BAKE,Baker,NF,Mi-Wuk,CA
145,40.8,-122.319,BAIL,Bailey Cove,NF,Lakehead,CA
152,37.642,-120.288,BART,Barrett Cove Rec Area,COE,La Grange,CA
144,40.341,-123.4,BAIC,Bailey Canyon,NF,Mad River,CA
142,37.269,-119.116,BADG,Badger Flat,NF,Lakeshore,CA
141,36.742,-118.966,AZAL,Azalea - Sequoia and Kings Canyon National Park,NP,Grant Grove,CA
140,35.652,-118.457,AUXI,Auxiliary Dam,NF,Lake Isabella,CA
139,38.566,-123.011,AUST,Austin Creek State Rec Area,SRA,Guerneville,CA
138,36.464,-118.668,ATWE,Atwell Mill - Sequoia National Park,NP,Grant Grove,CA
137,40.556,-120.772,ASPE,Aspen Grove,NF,Susanville,CA
143,37.61,-120.136,BAGB,Bagby Rec Area,COE,Coulterville,CA
136,37.939,-119.188,ASPN,Aspen,NF,Lee Vining,CA
153,34.171,-116.874,BARF,Barton Flats,NF,Angelus Oaks,CA
155,40.352,-122.959,BASG,Basin Gulch,NF,Platina,CA
169,36.142,-118.6,BELK,Belknap,NF,Springville,CA
168,40.848,-122.405,BEEH,Beehive Point,NF,Lakehead,CA
167,41.927,-122.829,BEVR,Beaver Creek,NF,Klamath River,CA
166,38.21,-120.075,BEAD,Beardsley Dam,NF,,CA
165,39.557,-120.235,BEAL,Bear Valley,NF,Sierraville,CA
164,39.084,-120.989,BERC,Bear River County Park,CP,Colfax,CA
154,37.031,-121.063,BASA,Basalt State Rec Area - San Luis Reservoir,SRA,Gustine,CA
163,39.322,-122.837,BEAC,Bear Creek,NF,Upper Lake,CA
161,41.444,-123.612,BEAN,Beans Camp,NF,,CA
160,38.719,-121.172,BEAP,Beals Point - Folsom Lake State Rec Area,SRA,Folsom,CA
159,39.13,-121.385,BEAL,Beale AFB Military,MIL,Beale Afb,CA
158,38.945,-120.099,BAYV,Bayview,NF,South Lake Tahoe,CA
157,40.348,-121.627,BATT,Battle Creek,NF,Mineral,CA
156,34.955,-119.907,BATE,Bates Canyon,NF,Santa Maria,CA
162,34.713,-118.631,BEAR,Bear,NF,Lake Hughes,CA
135,41.161,-120.828,ASHK,Ash Creek,NF,Adin,CA
134,41.117,-122.06,ASHC,Ash Camp,NF,Castella,CA
133,36.235,-121.483,ARRO,Arroyo Seco,NF,Greenfield,CA
112,40.226,-123.647,AIKE,Aikens Creek,NF,,CA
111,39.146,-120.406,AHAR,Ahart,NF,Foresthill,CA
110,41.11,-122.097,AHDI,Ah - Di - Na,NF,Castella,CA
109,32.95,-116.302,AGUA,Agua Caliente,CP,Ocotillo,CA
108,37.682,-119.09,AGNE,Agnew Meadows,NF,Mammoth Lakes,CA
107,35.038,-116.384,AFTO,Afton Canyon,BLM,Baker,CA
113,38.985,-120.38,AIRP,Airport Flat,NF,Pollock Pines,CA
106,37.804,-119.112,AERI,Aerie Crag RV Camp,NF,June Lake,CA
104,34.576,-117.408,ADEL,Adelanto City Park,CP,Adelanto,CA
103,37.978,-120.52,ACOR,Acorn - Tuttletown Area - New Melones Lake,BOR,Sonora,CA
102,38.177,-120.798,ACOR,Acorn - New Hogan Lake,COE,Valley Springs,CA
101,40.786,-122.771,ACKE,Ackerman,NF,Lewiston,CA
100,40.269,-124.23,AWWA,A.W. Way County Park,CP,Ferndale,CA
391,34.264,-117.085,CRAB,Crab Flats,NF,Lake Arrowhead,CA
105,32.792,-117.103,ADMI,Admiral Baker Military - San Diego NS,MIL,San Diego,CA
114,36.595,-118.108,ALAB,Alabama Hills Rec Area,BLM,Lone Pine,CA
115,37.659,-121.889,ALAM,Alameda County Fairgrounds RV,CP,Pleasanton,CA
116,40.353,-124.009,ALBE,Albee Creek State Park,SP,Weott,CA
131,34.26,-117.493,APPW,Applewhite,NF,Lytle Creek,CA
130,34.389,-117.717,APPL,Appletree,NF,Big Pines,CA
129,40.886,-122.381,ANTL,Antlers,NF,Lakehead,CA
128,37.759,-122.105,ANTH,Anthony Chabot Regional Park,CP,Oakland,CA
127,34.726,-118.177,ANTE,Antelope Valley Fairgrounds RV Park,CP,Lancaster,CA
126,36.283,-121.833,ANDR,Andrew Molera State Park,SP,Big Sur,CA
125,35.284,-120.266,AMER,American Canyon,NF,San Luis Obisp,CA
124,34.557,-115.781,AMBO,Amboy Crater,BLM,Amboy,CA
123,40.887,-122.766,ALPI,Alpine View,NF,Trinity Center,CA
122,39.323,-120.121,ALPM,Alpine Meadows,COE,Truckee,CA
121,40.217,-121.177,ALMA,Almanor,NF,Chester,CA
120,34.908,-119.768,ALIS,Aliso Park,NF,,CA
119,41.256,-121.883,ALGO,Algoma,NF,Mccloud,CA
118,40.21,-121.495,ALDE,Alder Creek,NF,,CA
117,35.72,-118.612,ALDC,Alder Creek,NF,Glennville,CA
170,34.002,-116.02,BELL,Belle - Joshua Tree National Park,NP,,CA
171,40.061,-123.785,BENB,Benbow Lake State Rec Area,SRA,Garberville,CA
172,40.395,-121.269,BENC,Benner Creek,NF,Chester,CA
173,39.628,-120.643,BERG,Berger Creek,NF,,CA
224,39.42,-120.086,BOCR,Boca Rest,NF,Truckee,CA
223,39.395,-120.104,BOCA,Boca,NF,Truckee,CA
222,32.713,-116.556,BOBC,Bobcat Meadow,NF,Pine Valley,CA
221,38.301,-120.234,BOAR,Boards Crossing,NF,,CA
220,33.374,-117.562,BLUF,Bluffs - San Onofre State Beach,SB,San Clemente,CA
219,34.36,-117.688,BLUE,Blue Ridge,NF,Wrightwood,CA
225,39.429,-120.075,BOCS,Boca Springs,NF,Truckee,CA
218,34.53,-118.758,BLUP,Blue Point, ,Castaic,CA
216,39.07,-122.509,BLUK,Blue Oaks,BLM,Williams,CA
215,37.664,-120.463,BLUO,Blue Oaks, ,Modesto,CA
214,41.143,-120.28,BLUL,Blue Lake,NF,Likely,CA
213,33.653,-117.45,BLUJ,Blue Jay,NF,Lake Elsinore,CA
212,38.538,-119.824,BLO1,Bloomfield I,NF,Arnold,CA
211,38.524,-119.811,BLO2,Bloomfield 2,NF,Arnold,CA
217,37.705,-120.433,BLOK,Blue Oaks - Don Pedro Rec Area,CP,La Grange,CA
226,38.341,-123.054,BODE,Bodega Dunes - Sonoma Coast State Park,SP,Bodega Bay,CA
227,40.575,-121.098,BOGA,Bogard,NF,Susanville,CA
228,33.982,-116.953,BOGP,Bogart Park,CP,Cherry Valley,CA
243,32.842,-116.225,BOWW,Bow Willow - Anza Borrego State Park,SP,Borrego Spring,CA
242,32.729,-116.483,BOUO,Boulder Oaks,NF,Pine Valley,CA
241,35.673,-118.469,BOUG,Boulder Gulch,NF,Lake Isabella,CA
240,38.355,-119.861,BOUF,Boulder Flat,NF, Mi-Wuk,CA
239,40.195,-120.618,BOUC,Boulder Creek,NF,Taylorsville,CA
238,33.826,-116.756,BOUB,Boulder Basin,NF,Idyllwild,CA
237,37.93,-119.169,BOUL,Boulder,NF,Lee Vining,CA
236,36.354,-121.813,BOTT,Bottchers Gap,NF,Carmel,CA
235,38.546,-122.535,BOTH,Bothe - Napa Valley State Park,SP,Calistoga,CA
234,33.269,-116.406,BORR,Borrego Palm Canyon  - Anza Borrego Desert State Park,SP,Borrego Springs,CA
233,38.424,-119.452,BOOT,Bootleg,NF,Coleville,CA
232,33.351,-115.739,BOMB,Bombay Beach  - Salton Sea State Rec Area,SRA,Niland,CA
231,33.692,-118.044,BOLS,Bolsa Chica State Beach,SB,Huntington Beach,CA
230,40.945,-123.658,BOIS,Boise Creek,NF,Willow Creek,CA
229,34.086,-117.794,BOHE,Bohelli Regional Park,CP,San Dimas,CA
210,41.557,-121.57,BLAN,Blanche Lake,NF,,CA
245,40.314,-123.394,BOYS,Boy Scout Cove - Ruth Lake,CP,Mad River,CA
209,39.73,-121.01,BLAT,Black Rock Tent(Family ),NF,La Porte,CA
207,36.921,-119.026,BLAM,Black Rock - Trimmer, ,Shaver Lake,CA
187,37.511,-118.714,BIGM,Big Meadows,NF,Mammoth Lakes,CA
186,36.721,-118.82,BIGW,Big Meadow,NF,,CA
185,38.417,-120.106,BIG2,Big Meadow,NF,Arnold,CA
184,41.164,-124.131,BIG4,Big Lagoon County Park,CP,Trinidad,CA
183,41.688,-123.908,BIGL,Big Flat,NF,Crescent City,CA
182,40.739,-123.203,BIGF,Big Flat,NF,Junction City,CA
188,39.075,-120.425,BIME,Big Meadows,NF,Foresthill,CA
181,39.902,-120.174,BIGC,Big Cove Family,NF,Chilcoot,CA
179,37.945,-119.202,BIGN,Big Bend,NF,Lee Vining,CA
178,34.235,-116.879,BIGB,Big Bear Military,MIL,Big Bear,CA
177,37.169,-122.221,BIG3,Big Basin Redwoods State Park,SP,Boulder Creek,CA
176,40.738,-123.252,BIGR,Big Bar,NF,Big Bar,CA
175,39.533,-121.459,BIDC,Bidwell Canyon - Lake Oroville State Rec Area,SRA,Oroville,CA
174,39.718,-121.946,BIDW,Bidwell - Sacramento River State Park,SP,Chico,CA
180,39.307,-120.52,BIGB,Big Bend - Soda Springs, ,Soda Springs,CA
189,38.004,-120.538,BIGO,Big Oak - Glory Hole Area - New Melones Lake,BOR,Angels Camp,CA
190,37.126,-118.433,BIGI,Big Pine,NF,Big Pine,CA
191,40.634,-121.466,BIGP,Big Pine,NF,Old Station,CA
206,40.184,-121.712,BLAC,Black Rock,NF,,CA
205,37.287,-118.558,BITT,Bitterbrush,NF,Bishop,CA
204,37.244,-118.597,BISH,Bishop Park,NF,Bishop,CA
203,40.546,-120.332,BISC,Biscar Reservoir,BLM,Susanville,CA
202,37.239,-119.227,BILU,Billy Creek - Upper,NF,Lakeshore,CA
201,37.238,-119.227,BILL,Billy Creek - Lower,NF,Lakeshore,CA
200,37.265,-118.578,BIGT,Big Trees,NF,Bishop,CA
199,37.749,-118.94,BIGG,Big Springs,NF,Mammoth Lakes,CA
198,40.665,-123.497,BIGD,Big Slide,NF,Hyampom,CA
197,37.468,-119.582,BIGY,Big Sandy,NF,Oakhurst,CA
196,41.579,-120.628,BIGS,Big Sage,NF,Alturas,CA
195,34.388,-117.777,BIGR,Big Rock,NF,Pearblossom,CA
194,39.144,-120.754,BIGE,Big Reservoir,NF,Foresthill,CA
193,37.173,-118.289,BPTP,Big Pine Triangle Park,CP,Big Pine,CA
192,34.32,-117.012,BIGA,Big Pine Flat,NF,Big Bear Lake,CA
208,34.076,-116.388,BLAR,Black Rock Canyon - Joshua Tree National Park,NP,Yucca Valley,CA
392,40.563,-121.52,CRGS,Crags - Lassen Volcanic National Park,NP,,CA
132,40.765,-122.119,ARBU,Arbuckle Flat,NF,Bella Vista,CA
394,40.627,-121.043,CRAT,Crater Lake,NF,Susanville,CA
1150,36.97,-119.017,SAWF,Sawmill Flat,NF,Lakeshore,CA
1149,34.701,-118.572,SAWM,Sawmill,NF,Lake Hughes,CA
1148,39.62,-120.615,SARD,Sardine,NF,Sierra City,CA
1147,41.788,-123.052,SARA,Sarah Totten,NF,Happy Camp,CA
1146,32.845,-117.006,SANK,Santee Lakes Regional Park,CP,Santee,CA
1145,34.941,-120.445,SANT,Santa Maria Fairpark,CP,Santa Maria,CA
1144,35.324,-120.493,SANT,Santa Margarita Lake Regional Park,CP,Santa Margarita,CA
1143,36.973,-121.998,SACP,Santa Cruz Port District,CP,Santa Cruz,CA
1142,35.581,-118.538,SAN4,Sandy Flat,NF,Lake Isabella,CA
1141,38.149,-121.694,SANP,Sandy Beach County Park,CP,Rio Vista,CA
1140,38.411,-120.08,SAN3,Sand Flat,NF,,CA
1139,38.763,-120.325,SAN2,Sand Flat,NF,Placerville,CA
1138,38.404,-119.788,SAN1,Sand Flat,NF,Kyburz,CA
1137,38.184,-120.155,SANF,Sand Bar Flat,NF,Mi-Wuk,CA
1136,37.237,-122.064,SANB,Sanborn - Skyline County Park,CP,Los Gatos,CA
1135,35.583,-121.121,SANS,San Simeon State Park,SP,Cambria,CA
1134,33.38,-117.572,SANO,San Onofre Beach Military,MIL,San Clemente,CA
1133,37.277,-122.294,SANM,San Mateo Memorial County Park,CP,Pescadero,CA
1132,33.407,-117.585,SANO,San Mateo  - San Onofre State Beach,SB,San Clemente,CA
1131,37.084,-121.062,SANL,San Luis Creek - San Luis Reservoir,SRA,Gustine,CA
1130,36.207,-121.153,SANR,San Lorenzo,CP,King City,CA
1129,34.174,-116.867,SANG,San Gorgonio,NF,Angelus Oaks,CA
1128,33.022,-117.284,SANE,San Elijo State Beach,SB,Cardiff,CA
1127,33.407,-117.602,SANC,San Clemente State Beach,SB,San Clemente,CA
1126,34.803,-120.515,SANA,San Antonio Military - Vandenberg AFB,MIL,Lompoc,CA
1125,38.024,-122.739,SAMU,Samuel Taylor State Park,SP,Lagunitas,CA
1124,37.335,-119.155,SAMP,Sample Meadow,NF,Lakeshore,CA
1151,37.769,-118.676,SAWS,Sawmill Meadows,NF,Lee Vining,CA
1152,41.592,-121.617,SCHO,Schonichin Springs,NF,Tionesta,CA
1153,39.418,-121.121,SCHL,Schoolhouse,NF,Camptonville,CA
1154,40.366,-123.309,SCOF,Scott Flat,NF,Bridgeville,CA
1182,38.481,-119.986,SILL,Silver Valley,NF,Arnold,CA
1181,32.636,-117.143,SILS,Silver Strand State Beach,SP,Coronado,CA
1180,37.783,-119.126,SIL4,Silver Lake - June Lake,NF,June Lake,CA
1179,39.959,-121.135,SILV,Silver Lake (Family ),NF,Quincey,CA
1178,38.672,-120.121,SIL3,Silver Lake,NF,Eldorado,CA
1177,38.699,-120.207,SILF,Silver Fork,NF,Pioneer,CA
1176,39.223,-120.201,SIL2,Silver Creek-Truckee,NF,Tahoe City,CA
1175,38.588,-119.786,SIL1,Silver Creek-Hwy 4,NF,Markleeville,CA
1174,40.5,-121.163,SILB,Silver Bowl,NF,Westwood,CA
1173,35.652,-117.668,SIER,Sierra Vista RV Park - China Lake,MIL,Ridgecrest,CA
1172,38.726,-120.549,SIER,Sierra  - Sly Park Recreation Area,CP,Pollock Pines,CA
1171,39.631,-120.558,SIER,Sierra,NF,Sierra City,CA
1170,35.912,-116.313,SHOS,Shoshone - Tecopa - Dispersed,BLM,Shoshone,CA
1123,40.769,-124.218,SAMO,Samoa Boat Ramp County RV Park,CP,Eureka,CA
1169,39.144,-120.786,SHIR,Shirttail,NF,Foresthill,CA
1167,40.47,-123.06,SHEI,Sheill Gulch,NF,Platina,CA
1166,36.792,-118.679,SHEP,Sheep Creek - Kings Canyon National Park,NP,Cedar Grove,CA
1165,40.713,-122.433,SHAS,Shasta (OHV),NF,Redding,CA
1164,37.854,-121.269,SHAR,Sharpe RV Military,MIL,French Camp,CA
1163,36.249,-118.67,SHAK,Shake Camp - State Forest,SF,Springville,CA
1162,41.711,-121.981,SHAF,Shafter,NF,Macdoel,CA
1161,41.203,-123.069,SHAD,Shadow Creek,NF,Cecilville,CA
1160,34.263,-116.915,SERR,Serrano,NF,Big Bear Lake,CA
1159,36.792,-118.673,SENT,Sentinel - Sequoia and Kings Canyon National Park,NP,Cedar Grove,CA
1158,35.132,-119.841,SELB,Selby,NM,New Cuyama,CA
1157,36.974,-121.919,SEAC,Seacliff State Beach,SB,Aptos,CA
1156,33.75,-118.085,SEAB,Seabreeze at Seal Beach Military,MIL,Seal Beach,CA
1155,41.275,-122.698,SCOT,Scott Mountain,NF,,CA
1168,37.63,-118.936,SHER,Sherwin Creek,NF,Mammoth Lakes,CA
1183,38.481,-120.017,SILT,Silvertip,NF,Bear Valley,CA
1122,38.569,-123.324,SALT,Salt Point State Park,SP,Jenner,CA
1120,37.866,-118.861,SAGE,Sagehen Meadows,NF,Lee Vining,CA
1087,40.018,-123.793,RICH,Richardson Grove State Park,SP,Garberville,CA
1086,34.637,-119.315,REYP,Reyes Peak,NF,Ojai,CA
1085,34.679,-119.307,REYC,Reyes Creek,NF,Mt. Pinos,CA
1084,37.771,-119.083,REVE,Reversed Creek,NF,June Lake,CA
1083,41.579,-120.874,RESF,Reservoir F,NF,Alturas,CA
1082,41.66,-120.774,RESC,Reservoir C,NF,Alturas,CA
1081,34.463,-120.072,REFU,Refugio State Beach,SP,Goleta,CA
1080,35.977,-118.592,REDW,Redwood Meadow,NF,Ducor,CA
1079,39.163,-123.206,REDW,Redwood Empire Fair RV Park,CP,Ukiah,CA
1078,40.78,-124.129,REDF,Redwood Acres Fairgrounds,CP,Eureka,CA
1077,37.619,-119.073,REDS,Reds Meadow,NF,Mammoth Lakes,CA
1076,37.145,-119.454,REDI,Redinger,NF,Fresno,CA
1075,41.167,-120.83,REDT,Red Tail Rim South,NF,Adin,CA
1074,35.371,-117.98,REDR,Red Rock Canyon State Park,SP,,CA
1073,33.202,-115.613,REDM,Red Hill Marina,CP,Calipatria,CA
1072,39.735,-120.971,REDF,Red Feather,NF,La Porte,CA
1071,41.299,-123.229,REDB,Red Bank,NF,,CA
1070,38.332,-121.094,RACO,Rancho Seco Rec Area,UTIL,Herald,CA
1069,38.332,-121.094,RANC,Rancho Seco,UTIL,Herald,CA
1068,33.98,-117.413,RANJ,Rancho Jurupa Park,CP,Riverside,CA
1067,37.25,-119.161,RANC,Rancheria,NF,Lakeshore,CA
1066,39.54,-120.91,RAMS,Ramshorn,NF,Downieville,CA
1065,40.707,-120.252,RAMH,Ramhorn Springs,BLM,Susanville,CA
1064,38.739,-120.528,RAIN,Rainbow  - Sly Park Recreation Area,CP,Pollock Pines,CA
1063,37.61,-120.008,RAIL,Railroad Flat,BLM,,CA
1062,40.046,-121.218,QUEE,Queen Lily,NF,Quincy,CA
1061,36.121,-118.545,QUAK,Quaking Aspen,NF,Camp Nelson,CA
1088,40.847,-122.798,RIDG,Ridgeville,NF,Weaverville,CA
1089,34.333,-119.403,RINC,Rincon County Parkway RV,CP,Ventura,CA
1090,40.876,-123.028,RIPS,Ripstein,NF,Junction City,CA
1091,34.65,-120.435,RIVP,River Park RV,CP,Lompoc,CA
1119,39.435,-120.257,SAGC,Sagehen Creek,NF,Truckee,CA
1118,37.13,-118.413,SAGF,Sage Flat,NF,Big Pine,CA
1117,37.965,-119.271,SADB,Saddlebag Lake,NF,Lee Vining,CA
1116,34.677,-117.825,SADU,Saddleback Butte State Park,SP,Lancaster,CA
1115,39.308,-122.712,SADD,Saddle Camp Loop,NF,Stonyford,CA
1114,37.22,-118.606,SABR,Sabrina,NF,Bishop,CA
1113,33.983,-116.155,RYAN,Ryan - Joshua Tree National Park,NP,,CA
1112,40.326,-123.393,RUTH,Ruth Lake - Ruth Lake,CP,Mad River,CA
1111,39.331,-123.779,RUSS,Russian Gulch State Park,SP,Mendocino,CA
1110,40.819,-122.897,RUSH,Rush Creek,NF,Weaverville,CA
1109,39.738,-120.967,RUNN,Running Deer,NF,La Porte,CA
1108,38.964,-120.933,RUCK,Rucky A Chucky - Auburn State Rec Area,SRA,,CA
1107,31.78,-109.31,RUCL,Rucker Lake,NF,,CA
1121,39.626,-120.614,SALM,Salmon Creek,NF,Sierra City,CA
1106,41.854,-124.122,RUBY,Ruby Van Devander Co Park,CP,Crescent City,CA
1104,34.532,-119.183,ROSE,Rose Valley,NF,Ojai,CA
1103,39.768,-121.312,ROGE,Rogers Cow Camp (Family ),NF,Berry Creek,CA
1102,39.513,-120.977,ROCR,Rocky Rest,NF,Camptonville,CA
1101,40.191,-121.1,ROCP,Rocky Point - Feather River,UTIL,Canyondam,CA
1100,40.499,-121.155,RCKL,Rocky Knoll,NF,Westwood,CA
1099,36.068,-118.922,ROCH,Rocky Hill,COE,Porterville,CA
1098,40.726,-121.428,ROCK,Rocky,NF,Hat Creek,CA
1097,37.451,-118.734,ROCL,Rock Creek Lake,NF,Mammoth Lakes,CA
1096,37.292,-119.361,ROCC,Rock Creek,NF,North Fork,CA
1095,39.156,-120.502,ROBF,Robinson Flat,NF,Foresthill,CA
1094,38.185,-119.323,ROBC,Robinson Creek,NF,Bridgeport,CA
1093,32.912,-115.118,ROAD,Roadrunner - Imperial Sand Dunes OHV,BLM,Brawley,CA
1092,37.993,-120.182,RIVR,River Ranch,NF,Twain Harte,CA
1105,40.348,-120.81,ROXI,Roxie Peconom,NF,Susanville,CA
1060,37.648,-119.075,PUMI,Pumice Flat,NF,Mammoth Lakes,CA
1184,34.281,-117.335,SIL5,Silverwood Lake State Rec Area,SP,Hesperia,CA
1186,39.318,-120.79,SKIL,Skillman,NF,Nevada City,CA
1276,35.87,-116.233,TECO,Tecopa Hot Springs Park,CP,Shoshone,CA
1275,40.075,-120.829,TAYL,Taylorsville County Park,CP,Taylorsville,CA
1274,37.831,-118.733,TAYL,Taylor Canyon,NF,Benton,CA
1273,34.323,-118.71,TAPO,Tapo Canyon Co Park,CP,Simi Valley,CA
1272,40.835,-122.845,TANN,Tannery Gulch,NF,Weaverville,CA
1271,33.138,-116.374,TAMR,Tamarisk Grove - Anza Borrego Desert State Park,SP,Borrego Springs,CA
1270,37.752,-119.737,TAMA,Tamarack Flat - Yosemite National Park,NP,,CA
1269,39.188,-120.373,TALB,Talbot,NF,Truckee,CA
1268,39.175,-120.135,TAHO,Tahoe State Rec Area,SRA,Tahoe City,CA
1267,36.997,-118.255,TABU,Taboose Creek County Park,CP,Independence,CA
1266,34.381,-117.69,TABL,Table Mountain,NF,Wrightwood,CA
1265,36.754,-118.254,SYMM,Symmes Creek,BLM,Independence,CA
1264,40.156,-122.204,SYCG,Sycamore Grove,NF,Red Bluff,CA
1263,34.413,-117.823,SYCF,Sycamore Flats,NF,Wrightwood,CA
1262,34.071,-119.013,SYPM,Sycamore - Point Mugu State Park,SP,Oxnard,CA
1261,32.683,-117.002,SWES,Sweetwater Summit,CP,Bonita,CA
1260,37.824,-120.002,SWEW,Sweetwater,NF,Groveland,CA
1259,37.365,-119.352,SWEE,Sweetwater,NF,North Fork,CA
1258,37.094,-119.278,SWAN,Swanson,NF,Shaver Lake,CA
1257,33.654,-117.998,SUNS,Sunset Vista RV Park,CP,Huntington Beach,CA
1256,36.899,-121.832,SUN3,Sunset State Beach,SB,Watsonville,CA
1255,39.439,-122.939,SUN1,Sunset Point  - Lake Pillsbury,NF,Upper Lake,CA
1254,36.46,-116.863,SUNS,Sunset - Death Valley National Park,NP,Furnace Creek,CA
1253,38.868,-120.403,SUN2,Sunset,NF,Pollock Pines,CA
1252,37.515,-121.835,SUNO,Sunol Regional Wilderness,CP,Pleasanton,CA
1251,39.901,-121.202,SUND,Sundew,NF,Quincy,CA
1250,40.494,-121.425,SUML,Summit Lake (north and south) - Lassen Volcanic National Park,NP,Viola,CA
1277,35.071,-118.484,TEHA,Tehachapi Mountain Park,CP,Tehachapi,CA
1278,36.754,-118.892,TENM,Tenmile,NF,Dunlap,CA
1279,36.459,-116.853,TEXA,Texas Spring - Death Valley National Park,NP,Furnace Creek,CA
1280,37.819,-120.093,PINE,The Pines,NF,Groveland,CA
1308,37.562,-118.668,TUFF,Tuff,NF,Bishop,CA
1307,38.052,-119.257,TRUM,Trumbull Lake,NF,Bridgeport,CA
1306,36.067,-118.235,TROY,Troy Meadow,NF,Inyokern,CA
1305,41.445,-121.886,TROU,Trout Creek Meadow,NF,,CA
1304,39.377,-123.064,TROU,Trout Creek,UTIL,Potter Valley,CA
1303,35.619,-117.37,TRON,Trona Pinnacles,BLM,Trona,CA
1302,40.748,-123.062,TRIR,Trinity River Rec Area, ,Junction City,CA
1301,41.109,-122.705,TRIN,Trinity River,NF,Trinity Center,CA
1300,36.904,-119.291,TRIM,Trimmer Rec Area,COE,Sanger,CA
1299,37.173,-118.289,TRIA,Triangle Rest Area,CP,Big Pine,CA
1298,41.831,-122.659,TREE,Tree Of Heaven,NF,Yreka,CA
1297,38.271,-121.954,TRAV,Travis AFB Military,MIL,,CA
1296,37.1,-118.984,TRAP,Trapper Springs, ,Clovis,CA
1249,37.508,-119.693,SUMC,Summit Camp,NF,Oakhurst,CA
1295,41.229,-122.972,TRAI,Trail Creek,NF,Etna,CA
1293,33.612,-116.66,TOOL,Tool Box Spring,NF,Mountain Center,CA
1292,40.141,-122.829,TOMH,Tomhead Saddle,NF,,CA
1291,40.083,-124.058,TOLK,Tolkan,BLM,Etterburg,CA
1290,34.861,-119.228,TOAD,Toad Springs,NF,Maricopa,CA
1289,41.283,-122.498,TOAL,Toad Lake,NF,Mt.Shasta,CA
1288,41.023,-123.638,TISH,Tish Tang,RES,Hoopa,CA
1287,37.928,-119.255,TIOG,Tioga Lake,NF,Lee Vining,CA
1286,37.052,-118.269,TINN,Tinnemaha,CP,Big Pine,CA
1285,35.701,-118.456,TILL,Tillie Creek,NF,Wofford Heights,CA
1284,39.921,-122.79,THRE,Three Prong,NF,Paskenta,CA
1283,34.082,-119.033,THOB,Thornhill Broome - Point Mugu State Park,SP,Thousand Oaks,CA
1282,36.237,-117.071,THOR,Thorndike - Death Valley National Park,NP,,CA
1281,34.626,-119.113,THOM,Thorn Meadows,NF,Maricopa,CA
1294,39.726,-120.98,TOOM,Tooms RV,NF,La Porte,CA
1185,41.062,-122.359,SIMS,Sims Flat,NF,Dunsmuir,CA
1248,37.082,-119.199,SUMM,Summit,NF,Oakhurst,CA
1246,41.66,-123.32,SULP,Sulphur Springs,NF,,CA
1213,40.437,-121.533,SOUW,Southwest - Lassen Volcanic National Park,NP,Mill Creek,CA
1212,34.395,-117.821,SOU3,Southfork,NF,Palmdale,CA
1211,39.342,-120.968,SOUY,South Yuba,BLM,Nevada City,CA
1210,35.814,-120.935,SOUA,South Shore San Antonio,CP,Paso Robles,CA
1209,38.534,-120.244,SOUS,South Shore,NF,Pioneer,CA
1208,35.659,-118.437,SOUF,South Fork Rec,NF,Lake Isabella,CA
1207,36.35,-118.765,SOU5,South Fork - Sequoia National Park,NP,,CA
1206,34.17,-116.828,SOU4,South Fork,NF,San Bernadino,CA
1205,37.838,-120.046,SOU2,South Fork,NF,Big Oak Flat,CA
1204,39.362,-122.653,SOU1,South Fork,NF,Stonyford,CA
1203,33.104,-117.319,SOUC,South Carlsbad State Beach,SB,Carlsbad,CA
1202,41.309,-120.277,SOUP,Soup Springs,NF,Likely,CA
1201,37.404,-119.561,SOQU,Soquel,NF,Oakhurst,CA
1200,38.364,-119.476,SONB,Sonora Bridge,NF,Walker,CA
1199,38.425,-122.699,SONF,Sonoma County Fairgrounds RV Park,CP,Santa Rosa,CA
1198,40.213,-121.273,SOLD,Soldier Meadows,NF,Chester,CA
1197,40.088,-121.586,SOD3,Soda Springs, ,Forest Ranch,CA
1196,37.653,-119.077,SOD2,Soda Springs,NF,Mammoth Lakes,CA
1195,37.381,-119.389,SOD1,Soda Springs,NF,North Fork,CA
1194,39.975,-121.015,SNAK,Snake Lake (Family ),NF,Quincy,CA
1193,39.668,-120.626,SNAG,Snag Lake,NF,Calpine,CA
1192,37.152,-119.512,SMAL,Smalley Cove,NF,Auberry,CA
1191,38.725,-120.57,SLYR,Sly Park,CP,Pollock Pines,CA
1190,39.584,-121.117,SLYC,Sly Creek, ,La Porte,CA
1189,40.668,-123.502,SLID,Slide Creek,NF,Hyampom,CA
1188,33.257,-115.464,SLAB,Slab City, ,Niland,CA
1187,38.276,-122.246,SKYL,Skyline Wilderness County Park,CP,Napa,CA
1214,40.03,-120.966,SPAN,Spanish Creek (Family ),NF,Quincy,CA
1215,38.409,-119.997,SPIC,Spicer Meadow,NF,Lake Tahoe,CA
1216,39.309,-122.716,SPIL,Spillway - Letts Lake,NF,Stonyford,CA
1217,37.302,-119.542,SPRC,Spring Cove,NF,Oakhurst,CA
1245,38.442,-122.539,SUGL,Sugarloaf Ridge State Park,SP,Kenwood,CA
1244,39.885,-122.776,SUGA,Sugarfoot,NF,Red Bluff,CA
1243,39.041,-120.146,SUGS,Sugar Pine Point State Park,SP,Tahoma,CA
1242,38.547,-120.241,SUGP,Sugar Pine Point,NF,Pioneer,CA
1241,38.904,-120.591,STUM,Stumpy Meadows,NF,Georgetown,CA
1240,34.55,-118.432,STRE,Streamside,NF,Santa Clarita,CA
1239,38.828,-120.338,STRP,Strawberry Point,NF,Placerville,CA
1238,39.588,-121.092,STRA,Strawberry, ,,CA
1237,36.607,-117.147,STOV,Stove Pipe Wells - Death Valley National Park,NP,Panamint Springs,CA
1236,41.562,-120.254,STOU,Stough Reservoir,NF,,CA
1235,39.592,-122.525,STON,Stony Gorge Reservoir,BOR,Elk Creek,CA
1234,36.664,-118.834,STOC,Stony Creek,NF,Wilsonia,CA
1233,40.848,-122.858,STON,Stoney Point,NF,Weaverville,CA
1247,37.492,-119.634,SUMD,Summerdale,NF,Oakhurst,CA
1232,38.732,-120.544,STON,Stonebraker  - Sly Park Recreation Area,CP,Pollock Pines,CA
1230,39.31,-122.712,STIR,Stirrup - Letts Lake,NF,Stonyford,CA
1229,38.548,-123.296,STIL,Stillwater Cove Regional Park,CP,Jenner,CA
1228,39.353,-120.493,STER,Sterling lake- dispersed,CP,,CA
1227,39.353,-120.493,STER,Sterling Lake,NF,,CA
1226,40.655,-122.954,STEI,Steiner Flat,BLM,Douglas City,CA
1225,40.677,-122.915,STEE,Steel Bridge,BLM,Douglas City,CA
1224,34.41,-119.083,STEC,Steckel Co Park,CP,Santa Paula,CA
1223,38.422,-120.046,STAN,Stanislaus River,NF,Arnold,CA
1222,39.878,-123.728,STAH,Standish - Hickey State Rec Area,SRA,Leggett,CA
1221,32.903,-114.477,SQUA,Squaw Lake,BLM,Winterhaven,CA
1220,34.61,-118.39,SPUN,Spunky,NF,Santa Clarita,CA
1219,38.448,-122.653,SPRL,Spring Lake Regional Park,CP,Santa Rosa,CA
1218,39.896,-120.178,SPRI,Spring Creek,NF,Chilcoot,CA
1231,33.785,-116.747,STCR,Stone Creek - San Jacinto Mountain State Park,SP,Idyllwild,CA
1309,36.08,-118.901,TULE,Tule Rec Area,COE,Porterville,CA
1059,39.378,-120.16,PROS,Prosser,NF,Truckee,CA
1057,40.963,-122.73,PREA,Preacher Meadow,NF,Trinity Center,CA
899,37.659,-120.659,MODE,Modesto Reservoir,CP,Waterford,CA
898,37.83,-120.342,MOCC,Moccasin Point - Don Pedro State Rec Area,SP,Groveland,CA
897,34.727,-114.514,MOAB,Moabi Regional Park,CP,Needles,CA
896,35.035,-120.038,MIRA,Miranda Pines,NF,Santa Maria,CA
895,40.852,-122.812,MINE,Minersville,NF,Trinity Center,CA
894,39.101,-120.924,MINB,Mineral Bar - Auburn State Rec Area,SRA,Colfax,CA
893,37.64,-119.084,MINA,Minaret Falls,NF,Mammoth Lakes,CA
892,39.707,-121.269,MLSP,Milsap Bar,NF,Brush Creek,CA
891,37.378,-118.493,MILP,Millpond,CP,Bishop,CA
890,37.025,-119.682,MILT,Millerton Lake State Rec Area,SRA,Friant,CA
889,40.453,-123.456,MILS,Miller Spring,NF,Mad River,CA
888,34.219,-118.145,MILA,Millard,NF,Pasadena,CA
887,39.318,-122.706,MILV,Mill Valley,NF,Stonyford,CA
886,36.857,-119.095,MILF,Mill Flat,NF,Frseno,CA
885,41.277,-120.288,MILE,Mill Creek Falls,NF,Likely,CA
884,41.703,-124.097,MLCR,Mill Creek - Del Norte Coast Redwoods State Park,SP,Crescent City,CA
883,38.302,-119.937,MILR,Mill Creek,NF,Mi-Wuk,CA
882,39.914,-121.188,MILK,Mill Creek,NF,Quincy,CA
881,39.356,-122.654,MILC,Mill Creek,NF,Stonyford,CA
880,34.854,-119.19,MILP,Mil Potrero Park,CP,Frazier Park,CA
808,39.443,-122.825,LOWN,Lower Nye,NF,Upper Lake,CA
809,36.066,-118.493,LOWM,Lower Peppermint,NF,Kernville,CA
810,37.471,-118.724,LOWP,Lower Pine Grove,NF,Bishop,CA
811,37.742,-119.571,LOWE,Lower Pines - Yosemite National Park,NP,Yosemite Village,CA
812,41.293,-120.878,LOWR,Lower Rush Creek,NF,Adin,CA
813,40.843,-122.352,LOWS,Lower Salt Creek,NF,Lakehead,CA
814,38.17,-119.323,LOWL,Lower Twin Lake,NF,Bridgeport,CA
900,34.515,-117.275,MOJA,Mojave Narrows Regional Park,CP,Victorville,CA
901,34.331,-117.264,MOJR,Mojave River Forks Regional Park,CP,Hesperia,CA
902,38.478,-120.271,MOKE,Mokelumne,NF,Jackson,CA
903,38.478,-120.271,MOKR,Mokelumne River,NF,West Point,CA
931,39.442,-122.957,NAVY,Navy Camp - Lake Pillsbury,NF,Ukiah,CA
930,39.171,-123.665,NAVV,Navarro River Redwoods State Park,SP,Albion,CA
929,38.296,-122.278,NAPV,Napa Valley Expo,CP,Napa,CA
928,38.583,-122.586,NAPF,Napa County Fairgrounds,CP,Calistoga,CA
927,40.021,-124.006,NADE,Nadelos,BLM,Whitethorn,CA
926,36.005,-121.395,NACI,Nacimiento,NF,Big Sur,CA
925,41.356,-123.075,MULE,Mule Bridge,NF,Etna,CA
924,34.383,-118.034,MTPA,Mt. Pacifico,NF,Pasadena,CA
923,37.851,-121.933,MTDI,Mt. Diablo State Park,SP,Walnut Creek,CA
922,34.81,-119.107,MTPI,Mt Pinos,NF,Frazier Park,CA
921,34.395,-117.729,MOUO,Mountain Oak,NF,Wrightwood,CA
920,37.224,-118.567,MTGL,Mountain Glen,NF,Bishop,CA
919,37.001,-121.702,MOUN,Mount Madonna,CP,Gilroy,CA
815,37.839,-120.049,LUMD,Lumsden,NF,Groveland,CA
918,42.075,-122.712,MOUA,Mount Ashland,NF,,CA
916,37.438,-118.746,MOSF,Mosquito Flat,NF,Mammoth Lakes,CA
915,36.246,-118.655,MOSG,Moses Gulch - State Forest,SF,Springville,CA
914,35.428,-120.883,MORS,Morro Strand State Beach,SP,Morro Bay,CA
913,35.333,-120.841,MORR,Morro Bay State Park,SP,Morro Bay,CA
912,36.786,-118.661,MORN,Moraine - Kings Canyon National Park,NP,Cedar Grove,CA
911,38.48,-120.267,MOOR,Moore Creek,NF,Pollock Pines,CA
910,40.889,-122.224,MOOC,Moore Creek,NF,Lakehead,CA
909,36.59,-121.861,MONT,Monterey Pines RV Military,MIL,Monterey,CA
908,36.595,-121.862,MONF,Monterey County Fairgrounds RV,CP,Monterey,CA
907,34.343,-118.11,MONC,Monte Cristo,NF,La Canada,CA
906,35.275,-120.881,MONR,Montana de Oro State Park,SP,Los Oso,CA
905,37.326,-119.018,MONH,Mono Hot Springs,NF,Lakeshore,CA
904,37.357,-118.994,MONO,Mono Creek,NF,Lakeshore,CA
917,38.516,-119.913,MOSL,Mosquito Lakes,NF,Bear Valley,CA
932,37.432,-119.584,NELD,Nelder Grove,NF,Fresno,CA
816,37.848,-120.032,LUMS,Lumsden Bridge,NF,Groveland,CA
818,34.329,-117.667,LUPI,Lupine,NF,Wrightwood,CA
851,37.597,-120.003,MCCA,McCabe Flat,BLM,Mariposa,CA
852,40.936,-122.245,MCCL,McCloud Bridge,NF,Lakehead,CA
853,37.609,-120.276,MCCP,McClure Point Rec Area,UTIL,Snelling,CA
854,37.416,-120.711,MCCO,McConnell State Rec Area,SRA,Ballico,CA
855,40.538,-121.735,MACU,Mccumber Reservoir,CP,Viola,CA
856,37.564,-118.785,MCGE,McGee Creek,NF,Mammoth Lakes,CA
857,34.814,-119.102,MCGI,McGill,NF,Frazier Park,CA
858,34.227,-119.257,MCGR,McGrath State Beach,SB,Oxnard,CA
859,39.459,-120.646,MCMU,McMurray,NF,Nevada City,CA
860,39.408,-120.501,MEAL,Meadow Lake,NF,Truckee,CA
861,40.036,-120.213,MEAD,Meadow View,NF,Doyle,CA
862,38.186,-120.005,MEAV,Meadowview,NF,Mi-Wuk,CA
863,33.489,-115.902,MECC,Mecca Beach  - Salton Sea State Rec Area,SRA,Mecca,CA
864,37.065,-121.029,MEDE,Medeiros State Rec Area - San Luis Reservoir,SRA,Gustine,CA
865,41.588,-121.595,MEDI,Medicine,NF,Tionesta,CA
866,37.564,-118.785,MEEC,Mee Creek,NF,Mammoth Lakes,CA
867,39.035,-120.123,MEEK,Meeks Bay,NF,Meeks Bay,CA
868,36.118,-121.466,MEMO,Memorial Park,NF,Greenfield,CA
869,40.55,-120.81,MERR,Merrill,NF,Susanville,CA
870,36.964,-117.367,MESQ,Mesquite Spring - Death Valley National Park,NP,Furnace Creek,CA
871,34.38,-118.191,MESS,Messenger Flats, ,La Canada,CA
872,35.132,-115.435,MIDH,Mid Hills - Mojave National Preserve,NP,,CA
873,39.253,-122.95,MIDC,Middle Creek,NF,Upper Lake,CA
874,38.627,-119.937,MIDD,Middle Creek/Expansion,CP,Jackson,CA
875,34.55,-119.166,MIDL,Middle Lion,NF,Ojai,CA
876,34.51,-119.58,MIDS,Middle Santa Ynez,NF,Summerland,CA
877,38.583,-120.301,MIDF,Middlefork Cosumnes,NF,Placerville,CA
850,41.353,-122.282,MCBR,Mcbride Springs,NF,Mt. Shasta,CA
849,41.017,-121.646,MCAR,McArthur - Burney Falls State Park,SP,Burney,CA
848,33.671,-114.534,MAYF,Mayflower Park,CP,Blythe,CA
847,40.289,-124.356,MATO,Mattole Beach,BLM,Petrolia,CA
819,38.509,-122.201,LUPI,Lupine Shores - Lake Berryessa - USBR,BOR,Napa,CA
820,37.308,-119.544,LUPN,Lupine/Cedar Bluff,NF,Oakhurst,CA
821,39.493,-123.794,MACK,MacKerricher State Park,SP,Mendocino,CA
822,40.403,-123.466,MADD,Mad River,NF,Fortuna,CA
823,40.924,-122.094,MADN,Madrone,NF,Redding,CA
824,36.231,-117.068,MAHO,Mahogany Flat - Death Valley National Park,NP,,CA
825,35.643,-118.483,MAID,Main Dam,NF,Lake Isabella,CA
826,39.303,-122.708,MAIN,Main Letts,NF,Stonyford,CA
827,39.373,-120.9,MALA,Malakoff Diggins State Park,SP,Nevada City,CA
828,34.097,-118.714,MALU,Malibu Creek - State Park,SP,Malibu,CA
829,37.344,-119.337,MAMM,Mammoth Pool,NF,North Fork,CA
830,38.981,-123.699,MANC,Manchester State Park,SP,Manchester;,CA
831,34.265,-117.631,MANK,Manker,NF,Claremont,CA
817,38.034,-119.207,LUND,Lundy Lake Park,CP,Lee Vining,CA
832,36.92,-121.853,MANR,Manresa State Beach,SP,Aptos,CA
834,38.599,-122.267,MANZ,Manzanita Canyon - Lake Berryessa - USBR,BOR,Napa,CA
835,40.531,-121.561,MANZ,Manzanita Lake - Lassen Volcanic National Park,NP,Viola,CA
836,33.893,-117.25,MARC,March ARB Military,MIL,,CA
837,34.88,-119.216,MARI,Marian,NF,Pine Mt Club,CA
838,40.84,-122.77,MARR,Mariners Roost,NF,Trinity Center,CA
839,33.792,-116.732,MARM,Marion Mountain,NF,Idyllwild,CA
840,37.465,-119.944,MAPO,Mariposa Fairgrounds,CP,Mariposa,CA
841,38.698,-119.776,MARK,Markleeville,NF,Markleeville,CA
842,37.077,-118.977,MRMT,Marmot Rock, ,Shaver Lake,CA
843,41.796,-122.205,MART,Martins Dairy,NF,Montague,CA
844,39.323,-120.121,MARC,Martis Creek Lake, ,Truckee,CA
845,40.732,-122.807,MARY,Mary Smith,NF,Lewiston,CA
846,41.188,-123.213,MATT,Matthews,NF,Etna,CA
833,37.978,-120.505,MANZ,Manzanita - Tuttletown Area - New Melones Lake,BOR,Columbia,CA
1058,36.804,-118.94,PRIN,Princess,NF,Hume,CA
933,40.849,-122.345,NELS,Nelson Point,NF,OBrien,CA
935,39.206,-121.077,NEVA,Nevada County Fairgrounds,CP,Grass Valley,CA
1025,34.639,-119.329,PINM,Pine Mountain,NF,Ojai,CA
1024,38.482,-119.989,PNMT,Pine Marten,NF,Bear Valley,CA
1023,34.236,-116.886,PINK,Pine Knot,NF,Big Bear,CA
1022,37.649,-118.955,PING,Pine Glen - Mammouth Lakes,NF,Mammoth Lakes,CA
1021,36.829,-119.338,PINF,Pine Flat Rec Area,CP,Fresno,CA
1020,38.727,-120.557,PINE,Pine Cone  - Sly Park Recreation Area,CP,Pollock Pines,CA
1019,37.604,-119.0,PINC,Pine City,NF,Mammoth Lakes,CA
1018,34.726,-120.511,LINC,Pine Canyon Military - Vandenberg AFB,MIL,,CA
1017,40.767,-123.13,PIGP,Pigeon Point,NF,Junction City,CA
1016,38.34,-119.803,PIGF,Pigeon Flat,NF,Bridgeport,CA
1015,33.034,-114.673,PICA,Picacho State Rec Area,SRA,Winterhaven,CA
1014,40.466,-123.191,PHIL,Philpot,NF,Hayfork,CA
1013,40.028,-121.467,PHLB,Philbrook - Feather River,UTIL,Paradise,CA
1012,36.249,-121.783,PFEI,Pfeiffer Big Sur State Park,SP,Big Sur,CA
1011,38.247,-122.783,PETA,Petaluma Lake Area Military,MIL,Petaluma,CA
1010,41.45,-120.241,PEPP,Pepperdine,NF,Alturas,CA
1009,39.301,-122.93,PENN,Penny Pines,NF,Upper Lake,CA
1008,39.724,-120.98,PENI,Peninsula Tent (Family ),NF,La Porte,CA
1007,38.789,-121.075,PENS,Peninsula - Folsom Lake State Rec Area,SRA,Folsom,CA
1006,41.309,-123.519,PEAR,Pearch Creek,NF,Orleans,CA
1005,41.555,-121.561,PAYN,Payne Springs,NF,McCloud,CA
1004,41.198,-120.186,PATT,Patterson,NF,Eagleville,CA
1003,41.136,-124.156,PATP,Patricks Point State Park,SP,Trinidad,CA
1002,41.872,-123.846,PATR,Patrick Creek,NF,Crescent City,CA
1001,39.506,-120.534,PASS,Pass Creek,NF,Truckee,CA
1000,32.958,-116.583,PASO,Paso Picacho - Cuyamaca Rancho State Park,SP,Julian,CA
999,38.537,-120.24,PARP,Pardoes Point,NF,Pioneer,CA
1026,40.927,-122.247,PINP,Pine Point,NF,Redding,CA
1027,34.692,-119.133,PINS,Pine Springs,NF,Frazier Park,CA
1028,38.19,-119.995,PINR,Pinecrest,NF,Mi-Wuk,CA
1029,36.499,-121.141,PINL,Pinnacles,NM,Pinnacles,CA
1056,33.942,-117.641,PRAD,Prado Regional Park,CP,Chino,CA
1055,36.517,-118.801,POTW,Potwisha - Sequoia National Park,NP,Three Rivers,CA
1054,32.615,-116.595,POTE,Potrero,CP,Potrero,CA
1053,40.188,-121.532,POTA,Potato Patch,NF,Chester,CA
1052,37.262,-122.212,PORR,Portola Redwoods State Park,SP,Lahonda,CA
1051,37.32,-119.067,PORT,Portal Forebay,NF,Lakeshore,CA
1050,36.601,-118.072,PORG,Portagee Joe,CP,Lone Pine,CA
393,37.752,-119.795,CRAN,Crane Flat - Yosemite National Park,NP,Crane Flat,CA
1049,37.809,-119.566,PORC,Porcupine Flat - Yosemite National Park,NP,,CA
1048,40.168,-121.187,POND,Ponderosa Flat,CP,Chester,CA
1047,38.906,-120.603,PONC,Ponderosa Cove,NF,Pollock Pines,CA
1046,35.998,-121.384,POND,Ponderosa,NF,San Simeon,CA
1045,34.1,-119.104,POIM,Point Mugu Military,MIL,,CA
998,35.651,-118.425,PARC,Paradise Cove,NF,Lake Isabella,CA
1044,39.442,-122.968,POGI,Pogie Point - Lake Pillsbury,NF,Potter Valley,CA
1042,41.713,-120.326,PLUM,Plum Valley,NF,Davis Creek,CA
1041,37.407,-118.505,PLEV,Pleasant Valley,CP,Bishop,CA
1040,39.014,-120.293,PLEA,Pleasant,NF,,CA
1039,39.729,-122.845,PLAM,Plaskett Meadows,NF,Elk Creek,CA
1038,35.918,-121.467,PLAT,Plaskett Creek,NF,Lucia,CA
1037,38.759,-121.295,PLAF,Placer County Fair RV,CP,Roseville,CA
1036,37.373,-119.362,PLAC,Placer,NF,Fresno,CA
1035,40.921,-121.553,PITC,Pit River/Cassel,UTIL,Burney,CA
1034,40.992,-121.506,PITR,Pit River,BLM,Burney,CA
1033,38.567,-120.433,PIPI,Pipi,NF,Pioneer,CA
1032,35.651,-118.486,PION,Pioneer Point,NF,Lake Isabella,CA
1031,33.585,-116.455,PINY,Pinyon Flat,NF,Palm Desert,CA
1030,36.95,-121.767,PINT,Pinto Lake Park,CP,Watsonville,CA
1043,39.757,-120.702,PLUE,Plumas - Eureka State Park,SP,Blairsden,CA
934,34.803,-119.292,NETT,Nettle Springs,NF,Maricopa,CA
997,34.542,-119.811,PARA,Paradise,NF,Santa Barbara,CA
995,41.843,-123.929,PANF,Panther Flat,NF,Gasquet,CA
962,33.386,-116.789,OAKR,Oak Grove,NF,Warner Springs,CA
961,40.85,-122.352,OAKG,Oak Grove,NF,,CA
960,39.443,-122.953,OAFL,Oak Flat Overflow - Lake Pillsbury,NF,Upper Lake,CA
959,39.444,-122.953,OAKF,Oak Flat - Lake Pillsbury,NF,Calpella,CA
958,34.6,-118.722,OAKL,Oak Flat,NF,Castaic,CA
957,41.809,-123.116,OAKB,Oak Bottom,NF,Somes Bar,CA
956,38.831,-120.347,NORW,Northwind,NF,Placerville,CA
955,39.0,-120.311,NORS,Northshore,NF,Pollock Pines,CA
954,35.881,-120.991,NOSS,North Shore San Antonio,CP,Bradley,CA
953,41.034,-121.65,NOSH,North Shore,UTIL,,CA
952,34.268,-117.164,NORE,North Shore,NF,Running Springs,CA
951,37.742,-119.567,NORP,North Pines - Yosemite National Park,NP,Yosemite Village,CA
950,37.227,-118.627,NORL,North Lake,NF,Bishop,CA
949,40.332,-123.017,NORB,North Fork Beegum Creek F,NF,Platina,CA
948,39.27,-120.657,NORR,North Fork,NF,Dutch Flat,CA
947,40.04,-121.22,NORM,North Fork,NF,Quincy,CA
946,39.379,-122.648,NORK,North Fork,NF,Stonyford,CA
945,41.979,-123.961,NORF,North Fork,NF,,CA
944,40.735,-120.718,NORG,North Eagle Lake,BLM,Susanville,CA
943,35.133,-120.635,NORS,North Beach - Pismo State Beach,SB,Oceano,CA
942,40.597,-121.648,NORT,North Battle Creek Reservoir,UTIL,Viola,CA
941,41.299,-123.362,NORD,Nordheimer,NF,Orleans,CA
940,41.647,-123.311,NORC,Norcross,NF,Happy Camp,CA
939,34.77,-119.937,NIRA,Nira,NF,Santa Ynez,CA
938,38.325,-119.914,NIAG,Niagra Creek,NF,Mi-Wuk,CA
937,37.649,-118.96,NEWS,New Shady Rest,NF,Mammoth Lakes,CA
936,36.983,-121.937,NEWB,New Brighton State Beach,SP,Capitola,CA
963,38.181,-120.79,OAKK,Oak Knoll - New Hogan Lake,COE,Valley Springs,CA
964,34.289,-118.819,OAKP,Oak Park,CP,Simi Valley,CA
965,34.246,-118.182,OAKW,Oakwilde,NF,La CaÃ±ada Flintridge,CA
966,33.343,-116.876,OBSE,Observatory,NF,Palomar Mountain,CA
994,35.809,-118.571,PANO,Panorama, ,Posey,CA
993,36.339,-117.467,PANS,Panamint Springs, ,Panamint Springs,CA
992,32.994,-115.091,PALO,Palo Verde Flats - Imperial Sand Dunes OHV,BLM,Brawley,CA
991,33.399,-114.725,PALO,Palo Verde County Park,CP,Palo Verde,CA
990,33.328,-115.946,PALM,Palm Beach Dry Camp,CP,Thermal,CA
989,37.495,-118.719,PALI,Palisade,NF,Mammoth Lakes,CA
988,33.617,-115.999,PAIN,Painted Canyon,BLM,Mecca,CA
987,38.179,-119.322,PAHA,Paha,NF,Bridgeport,CA
986,32.934,-115.137,PAD2,Pads - Imperial Sand Dunes OHV,BLM,Brawley,CA
985,32.961,-115.168,PAD1,Pads  - Imperial Sand Dunes OHV,BLM,Brawley,CA
984,39.624,-120.648,PACK,Packsaddle,NF,Sierra City,CA
983,38.517,-119.902,PACI,Pacific Valley,NF,Bear Valley,CA
982,34.694,-119.329,OZEN,Ozena,NF,Frazier Park,CA
996,41.355,-122.202,PANT,Panther Meadows,NF,Mccloud,CA
981,35.022,-117.022,OWLC,Owl Canyon,BLM,Barstow,CA
979,33.539,-117.553,ORTE,Ortega Flats - Caspers Wilderness Co Park,CP,San Juan Capis,CA
978,41.663,-121.987,ORRL,Orr Lake,NF,Macdoel,CA
977,39.772,-122.353,ORLA,Orland Buttes Rec Area,COE,Orland,CA
976,36.772,-118.341,ONIO,Onion Valley,NF,Independence,CA
975,33.657,-117.604,ONRP,ONeill Regional Park,CP,Trabuco Canyon,CA
974,41.377,-123.451,ONEI,Oneil Creek,NF,Seiad Valley,CA
973,37.648,-118.964,OLDS,Old Shady Rest,NF,Mammoth Lakes,CA
972,39.309,-122.645,OLDM,Old Mill,NF,Stonyford,CA
971,37.799,-119.071,OHRI,Oh Ridge,NF,June Lake,CA
970,33.151,-116.167,OCOT,Ocotillo Wells State Vehicle Area,SRA,Ocotillo Wells,CA
969,35.093,-120.617,OCEA,Oceano Dunes State Veh Rec Area,SRVA,Oceano,CA
968,35.106,-120.627,OCEA,Oceano County,CP,Oceano,CA
967,38.3,-119.449,OBSI,Obsidian,NF,Walker,CA
980,32.983,-115.133,OSBO,Osborne Overlook - Imperial Sand Dunes OHV,BLM,Brawley,CA
1310,41.951,-121.481,TULE,Tulelake - Butte Valley Fair RV Park,CP,Tulelake,CA
1311,40.774,-122.779,TUNN,Tunnel Rock,NF,Lewiston,CA
1312,37.871,-119.359,TUOL,Tuolumne Meadows - Yosemite National Park,NP,Lee Vining,CA
553,35.874,-118.456,GOLD,Goldledge,NF,Kernville,CA
554,36.988,-118.275,GOOD,Goodale Creek,BLM,Independence,CA
555,39.259,-120.209,GOSM,Goose Meadow,NF,Truckee,CA
556,34.222,-118.178,GOUL,Gould Mesa,NF,La CaÃ±ada Flintridge,CA
557,40.413,-120.862,GOUM,Goumaz,NF,Susanville,CA
558,37.334,-118.19,GRAD,Grandview,NF,Big Pine,CA
559,37.542,-119.27,GRAN,Granite Creek,NF,,CA
560,39.3,-120.204,GRAT,Granite Flat,NF,Truckee,CA
561,37.342,-121.722,GRAC,Grant County Park,CP,San Jose,CA
562,39.89,-120.479,GRAS,Grasshopper Flat Family .,NF,Portola,CA
563,41.857,-123.887,GRAF,Grassy Flat,NF,Crescent City,CA
564,40.857,-123.492,GRYF,Grays Falls,NF,Burnt Ranch,CA
565,36.781,-118.285,GRAY,Grays Meadow,NF,Independence,CA
566,32.71,-114.924,GRAY,Grays WellÃ‚Â Ã‚Â Ã‚Â OHV,BLM,Winterhaven,CA
567,38.11,-119.278,GREK,Green Creek,NF,Bridgeport,CA
568,34.245,-117.063,GREV,Green Valley,NF,Lake Arrowhead,CA
569,32.905,-116.584,GRVV,Green Valley - Cuyamaca Rancho State Park,SP,Julian,CA
570,35.739,-118.557,GREE,Greenhorn Mountain Park,CP,Wofford Heights,CA
571,40.826,-122.254,GREC,Greens Creek,NF,Redding,CA
572,40.157,-120.955,GREN,Greenville Community Campground,NF,Greenville,CA
573,40.888,-122.368,GREG,Gregory Creek,NF,Lakehead,CA
574,37.399,-119.565,GREY,Greys Mountain,NF,Oakhurst,CA
575,41.807,-123.218,GRIC,Grider Creek,NF,Seiad Valley,CA
576,39.592,-122.525,GRIM,Grimy Gulch - Stony Gorge Reservoir - USBR,BOR,Elk Creek,CA
577,39.887,-120.474,GRIZ,Grizzly,NF,Portola,CA
578,39.867,-121.207,GRIF,Grizzly Creek,NF,Quincy,CA
579,40.487,-123.904,GRIR,Grizzly Creek Redwoods State Park,SP,Carlotta,CA
552,41.1,-122.779,GOLF,Goldfield,NF,Trinity Center,CA
551,39.605,-121.139,GOLT,Golden Trout Crossing,NF,Marysville,CA
550,41.396,-124.068,GOLB,Gold Bluffs Beach - Prarie Creek Redwoods State Park,SP,Orick,CA
549,38.009,-120.541,GLOI,Gloryhole Rec Area- Ironhorse - USBR,BOR,Angels Camp,CA
521,38.17,-120.07,FRAS,Fraser Flat,NF,Mi-Wuk,CA
522,36.238,-118.692,FRAZ,Frazier Mill - State Forest,SF,Springville,CA
523,34.543,-119.822,FREM,Fremont,NF,Santa Barbar,CA
524,36.76,-121.502,FREP,Fremont Peak State Park,SP,San Juan Bautista,CA
525,37.553,-118.683,FREC,French Camp,NF,Bishop,CA
526,39.115,-120.421,FRED,French Meadows,NF,Foresthill,CA
527,39.9,-120.188,FREF,Frenchman,NF,Chilcoot,CA
528,39.458,-121.151,FREN,Frenchy Point,NF,Camptonville,CA
529,37.456,-119.548,FRES,Fresno Dome,NF,Oakhurst,CA
530,35.874,-118.573,FROG,Frog Meadow,NF,California Hot Springs,CA
531,38.044,-120.522,FROV,Frogtown RV Park,CP,Angels Camp,CA
532,33.344,-116.881,FRYC,Fry Creek,NF,Santa Ysabel,CA
533,39.436,-122.968,FULG,Fuller Grove - Lake Pillsbury,UTIL,Potter Valley,CA
580,38.543,-119.88,GROF,Grouse Flat,NF,Bear Valley,CA
534,39.35,-120.656,FULL,Fuller Lake, ,Nevada City,CA
536,37.361,-119.468,GAGG,Gaggs Camp,NF,Oakhurst,CA
537,40.02,-121.223,GANS,Gansner Bar,NF,Quincy,CA
538,39.433,-121.123,GARD,Garden Point,NF,Camptonville,CA
539,34.472,-120.229,GAVI,Gaviota State Park,SP,Goleta,CA
540,32.94,-115.143,GECK,Gecko Loop - Imperial Sand Dunes OHV,BLM,Brawley,CA
541,37.36,-120.959,GEOR,George Hatfield State Rec Area,SRA,Hilmar,CA
542,38.975,-120.392,GERL,Gerle Creek,NF,Pollock Pines,CA
543,39.139,-120.792,GIAN,Giant Gap,NF,Foresthill,CA
544,37.013,-119.106,GIGA,Gigantea,NF,Shaver Lake,CA
545,32.992,-115.079,GLAM,Glamis Flats - Imperial Sand Dunes OHV,BLM,Brawley,CA
546,37.752,-118.99,GLAS,Glass Creek,NF,June Lake,CA
547,34.205,-117.404,GLEH,Glen Helen Regional Park,CP,San Bernardino,CA
548,34.241,-117.952,GLEN,Glenn Camp,NF,Azusa,CA
535,36.463,-116.869,FURN,Furnace Creek - Death Valley National Park,NP,Furnace Creek,CA
520,37.42,-121.373,FRAN,Frank Raines Regional Park,CP,Patterson,CA
581,39.389,-120.609,GROU,Grouse Ridge,NF,Nevada City,CA
583,33.247,-117.272,GUAJ,Guajome Park,CP,Oceanside,CA
616,38.543,-119.884,HERM,Hermit Valley,NF,Bear Valley,CA
617,38.244,-119.932,HERC,Herring Creek,NF,Bumblebee,CA
618,38.249,-119.935,HERR,Herring Reservoir,NF,Bumblebee,CA
619,34.386,-117.252,HESP,Hesperia Lake Park,CP,Hesperia,CA
620,35.26,-120.415,HIMO,Hi Mountain,NF,San Luis Obisp,CA
621,36.259,-118.661,HIDF,Hidden Falls - State Forest,SF,Springville,CA
622,40.276,-123.867,HIDS,Hidden Springs - Humbolt Redwoods State Park,SP,Weott,CA
623,34.017,-116.163,HIDD,Hidden Valley - Joshua Tree National Park,NP,Twentynine Palms,CA
624,37.123,-119.895,HIDV,Hidden View,COE,Madera,CA
625,40.339,-121.306,HIGH,High Bridge,NF,Chester,CA
626,38.489,-119.807,HIGL,Highland Lakes,NF,Arnold,CA
627,38.735,-120.542,HILL,Hilltop  - Sly Park Recreation Area,CP,Pollock Pines,CA
628,40.866,-122.249,HIRZ,Hirz Bay,NF,Lakehead,CA
629,40.313,-123.361,HOBA,Hobart Creek - Ruth Lake,CP,Mad River,CA
630,35.574,-118.529,HOBO,Hobo,NF,Lake Isabella,CA
631,40.929,-123.153,HOBG,Hobo Gulch,NF,Junction City,CA
632,34.338,-119.412,HOBS,Hobson Park,CP,Ventura,CA
633,37.797,-119.868,HODG,Hodgdon Meadow - Yosemite National Park,NP,Groveland,CA
634,34.303,-116.896,HOLC,Holcomb Valley,NF,Big Bear City,CA
635,40.31,-121.561,HOLE,Hole In The Ground,NF,Mineral,CA
636,35.044,-115.398,HOLW,Hole In The Wall - Mojave National Preserve,NP,Essex,CA
637,35.954,-118.622,HOLM,Holey Meadow,NM,Porterville,CA
638,37.553,-118.676,HOLI,Holiday,NF,ammoth Lakes,CA
639,36.768,-121.412,HOLL,Hollister Hills State Veh Rec Area,SP,Hollister,CA
640,40.244,-124.123,HOND,Honeydew,BLM,Honeydew,CA
641,38.2,-119.321,HONE,Honeymoon,NF,Bridgeport,CA
642,40.779,-121.502,HONN,Honn Creek,NF,Hat Creek,CA
615,37.031,-122.041,HENR,Henry Cowell Redwoods State Park,SP,Scotts Valley,CA
614,37.188,-121.546,HENC,Henry Coe State Park,SP,Morgan Hill,CA
613,39.084,-123.485,HEND,Hendy Woods State Park,SP,Mendocino,CA
612,41.586,-121.589,HEML,Hemlock,NF,Tionesta,CA
584,38.756,-123.516,GUAL,Gualala Point Regional Park,CP,Gualala,CA
585,34.342,-117.654,GUFF,Guffy,NF,Big Pines,CA
586,37.773,-119.082,GULL,Gull Lake,NF,June Lake,CA
587,41.213,-122.509,GUMB,Gumboot Lake,NF,Mt.Shasta,CA
588,40.309,-121.426,GURN,Gurnsey Creek,NF,Chester,CA
589,37.996,-120.181,HACI,Hacienda,NF,Twain Harte,CA
590,37.466,-122.445,HALM,Half Moon Bay State Beach,SP,Half Moon Bay,CA
591,34.651,-119.068,HALF,Halfmoon,NF,Frazier Park,CA
592,40.018,-121.074,HALL,Hallsted,NF,Quincy,CA
593,39.95,-122.991,HAMM,Hammerhorn Lake,NF,Willits,CA
594,39.311,-120.497,HAMP,Hampshire Rocks,NF,Soda Springs,CA
595,34.288,-116.974,HANN,Hanna Flats,NF,Fawnskin,CA
596,34.688,-118.847,HARD,Hardluck,NF,Maricopa,CA
582,38.7,-119.838,GROV,Grover Hot Springs State Park,SP,Markleeville,CA
597,41.457,-121.785,HARR,Harris Springs,NF,,CA
599,39.868,-121.174,HASK,Haskins Valley,CP,,CA
600,40.668,-121.447,HAT,Hat Creek,NF,Old Station,CA
601,41.052,-121.973,HAWK,Hawkins Landing,UTIL,Big Bend,CA
602,40.784,-123.343,HAYD,Hayden Flat,NF,Del Loma,CA
603,40.874,-122.768,HAYW,Hayward Flat,NF,Trinity Center,CA
604,38.739,-120.531,HAZE,Hazel Creek  - Sly Park Recreation Area,CP,Pollock Pines,CA
605,41.585,-121.615,HEAD,Headquarters,NF,,CA
606,35.797,-118.45,HEAQ,Headquarters,NF,Kernville,CA
607,33.506,-115.916,HEAR,Headquarters - Salton Sea State Rec Area,SRA,Mecca,CA
608,34.159,-116.786,HEAB,Heart Bar,NF,Angelus Oaks,CA
609,36.231,-118.683,HENP,Hedrick Pond - State Forest,SF,Springville,CA
610,40.371,-123.314,HELG,Hell Gate,NF,Hayfork,CA
611,39.069,-120.416,HELL,Hell Hole,NF,Georgetown,CA
598,37.772,-119.037,HART,Hartley Springs,NF,Mammoth Lakes,CA
643,38.73,-119.929,HOPE,Hope Valley,NF,Woodfords,CA
519,41.245,-122.023,FOWL,Fowlers Camp,NF,McCloud,CA
517,37.249,-118.571,FOUR,Four Jeffery,NF,Bishop,CA
427,37.071,-119.156,DINK,Dinkey,NF,Dinkey Creek,CA
428,37.671,-119.837,DIRT,Dirt Flat,NF,El Portal,CA
429,39.336,-122.702,DIXG,Dixie Glade,NF,Stonyford,CA
430,33.162,-117.047,DIXL,Dixon Lake,CP,Escondito,CA
431,33.931,-118.435,DOCK,Dockweiler Beach RV,CP,Los Angeles,CA
432,40.975,-120.131,DODG,Dodge,BLM,Susanville,CA
433,39.565,-120.066,DOGV,Dog Valley,NF,Verdi,CA
434,34.235,-117.212,DOGW,Dogwood,NF,Rimforest,CA
435,33.464,-117.688,DOHE,Doheny State Beach,SB,Dana Point,CA
436,40.36,-121.345,DOMI,Domingo Springs,NF,Chester,CA
437,39.322,-120.241,DONN,Donner Memorial State Park,SP,Truckee,CA
438,39.322,-120.634,DONS,Donner Summit Area - Lake Spaulding,UTIL,Emigrant Gap,CA
439,37.113,-119.31,DORA,Dorabelle,NF,Shaver Lake,CA
440,38.315,-123.042,DORN,Doran Regional Park,CP,Bodega Bay,CA
441,36.636,-118.811,DORS,Dorst  Creek - Sequoia National Park,NP,Giant Forest,CA
442,32.999,-116.941,DOSP,Dos Picos,CP,Ramona,CA
443,37.83,-121.311,DOSR,Dos Reis,CP,Lathrop,CA
444,40.648,-122.954,DOUG,Douglas City,BLM,Douglas City,CA
445,35.424,-118.011,DOVE,Dove Springs Off Hwy Area,BLM,Mohave,CA
446,33.461,-116.97,DRIP,Dripping Springs,NF,Aguanga,CA
447,38.942,-120.765,DRUB,Dru Barner,NF,Georgetown,CA
448,37.674,-119.835,DRYG,Dry Gulch,NF,Mariposa,CA
449,32.714,-114.942,DUNE,Dunebuggy FlatsÃ‚Â Ã‚Â OHV,BLM,Winterhaven,CA
450,34.675,-118.977,DUTC,Dutchman,NF,Maricopa,CA
451,41.235,-123.659,ENEN,E - Ne - Nuck,NF,Orleans,CA
452,40.549,-120.779,EAGL,Eagle,NF,Susanville,CA
453,41.153,-122.671,EAGC,Eagle Creek,NF,Trinity Center,CA
426,41.574,-123.541,DILL,Dillon,NF,Orleans,CA
425,36.559,-118.057,DIAZ,Diaz Lake,CP,Lone Pine,CA
424,37.863,-119.87,DIAM,Diamond O,NF,Groveland,CA
423,39.631,-120.638,DIAB,Diablo,NF,,CA
395,39.891,-120.423,CROC,Crocker Family .,NF,Portola,CA
396,37.573,-118.769,CROW,Crowley Lake,BLM,Mammoth Lakes,CA
397,33.563,-117.822,CRYS,Crystal Cove State Park - Moro Campground,SP,Laguna Beach,CA
398,34.324,-117.836,CRYL,Crystal Lake Rec Area,NF,Azusa,CA
399,38.764,-119.845,CRYS,Crystal Springs,NF,Bridgeport,CA
400,41.786,-123.389,CURL,Curly Jack,NF,Happy Camp,CA
401,38.977,-120.102,DLBL,D.L. Bliss State Park,SP,Emerald Bay,CA
402,38.342,-119.832,DARD,Dardanelle,NF,Dardanelle,CA
403,33.804,-116.732,DARC,Dark Canyon,NF, Idyllwild,CA
404,39.429,-121.108,DARK,Dark Day,NF,Camptonville,CA
405,39.362,-122.656,DAVI,Davis Flat,NF,Elk Creek,CA
406,34.756,-119.95,DAVY,Davy Brown,NF,Santa Ynez,CA
407,41.062,-121.975,DEAL,Deadlum,NF,Round Mountain,CA
454,41.154,-123.109,EASF,East Fork,NF,Cecilville,CA
408,38.317,-119.748,DEAD,Deadman,NF,Mi-Wuk,CA
410,40.965,-121.838,DEEP,Deep Creek,NF,Big Bend,CA
411,37.252,-119.176,DEEC,Deer Creek,NF,Clovis,CA
412,41.568,-122.135,DEEM,Deer Mountain Snowpark,NF,Weed,CA
413,39.266,-122.884,DEER,Deer Valley,NF,Upper Lake,CA
414,40.47,-122.926,DEEL,Deerlick Springs,NF,,CA
